[
  {
    "routeNumber": "1",
    "type": "اتوبيس",
    "stops": [
      {
        "name": "التجمع الثالث",
        "lat": 30.1344606,
        "lng": 31.4435178
      },
      {
        "name": "ميدان أرابيلا",
        "lat": 30.1344606,
        "lng": 31.4435178
      },
      {
        "name": "معهد العلوم الإدارية",
        "lat": 30.1344606,
        "lng": 31.4435178
      },
      {
        "name": "شارع التسعين",
        "lat": 30.1344606,
        "lng": 31.4435178
      },
      {
        "name": "الطريق الدائري",
        "lat": 30.1344606,
        "lng": 31.4435178
      },
      {
        "name": "المرج الشرقية",
        "lat": 30.1344606,
        "lng": 31.4435178
      }
    ]
  },
  {
    "routeNumber": "1",
    "type": "اتوبيس",
    "stops": [
      {
        "name": "مسرة",
        "lat": 30.0668177,
        "lng": 31.2760789
      },
      {
        "name": "دوران شبرا",
        "lat": 30.0668177,
        "lng": 31.2760789
      },
      {
        "name": "مظلات",
        "lat": 30.0668177,
        "lng": 31.2760789
      },
      {
        "name": "سواح",
        "lat": 30.0668177,
        "lng": 31.2760789
      },
      {
        "name": "الوايلى",
        "lat": 30.0668177,
        "lng": 31.2760789
      },
      {
        "name": "حدائق القبة",
        "lat": 30.0668177,
        "lng": 31.2760789
      },
      {
        "name": "عباسية",
        "lat": 30.0668177,
        "lng": 31.2760789
      }
    ]
  },
  {
    "routeNumber": "1",
    "type": "ميني باص",
    "stops": [
      {
        "name": "المظلات",
        "lat": 30.1016229,
        "lng": 31.2455062
      },
      {
        "name": "عبود",
        "lat": 29.7999449,
        "lng": 31.3492699
      },
      {
        "name": "السواح",
        "lat": 30.1023241,
        "lng": 31.3040355
      },
      {
        "name": "الاميرية",
        "lat": 30.1000001,
        "lng": 31.283333
      },
      {
        "name": "سرايا القبة",
        "lat": 30.096712099999998,
        "lng": 31.299515399999997
      },
      {
        "name": "روكسى",
        "lat": 30.0934241,
        "lng": 31.3156978
      },
      {
        "name": "نفق الثورة",
        "lat": 30.088766,
        "lng": 31.3305217
      },
      {
        "name": "كلية البنات",
        "lat": 30.0815942,
        "lng": 31.3290937
      },
      {
        "name": "رابعة",
        "lat": 30.0710223,
        "lng": 31.3377303
      },
      {
        "name": "عباس العقاد",
        "lat": 30.0382326,
        "lng": 31.5507996
      },
      {
        "name": "مصطفى النحاس",
        "lat": 30.1529642,
        "lng": 31.6185573
      },
      {
        "name": "الحى الثامن",
        "lat": 30.1178658,
        "lng": 31.54235913333333
      },
      {
        "name": "الحى العاشر",
        "lat": 30.082767399999998,
        "lng": 31.466160966666667
      },
      {
        "name": "زهراء مدينة نصر",
        "lat": 30.047669,
        "lng": 31.3899628
      }
    ]
  },
  {
    "routeNumber": "1",
    "type": "ميني باص",
    "stops": [
      {
        "name": "رمسيس",
        "lat": 30.0618579,
        "lng": 31.2460417
      },
      {
        "name": "غمرة",
        "lat": 30.068964,
        "lng": 31.2646738
      },
      {
        "name": "العباسية",
        "lat": 30.066667,
        "lng": 31.283333
      },
      {
        "name": "نادى السكة",
        "lat": 30.0561053,
        "lng": 31.3041965
      },
      {
        "name": "رابعة",
        "lat": 30.0710223,
        "lng": 31.3377303
      },
      {
        "name": "اول عباس",
        "lat": 30.06504995,
        "lng": 31.3418466
      },
      {
        "name": "اول مكرم",
        "lat": 30.0590776,
        "lng": 31.3459629
      },
      {
        "name": "النادى الأهلى",
        "lat": 30.0712332,
        "lng": 31.3577033
      },
      {
        "name": "طريق السويس",
        "lat": 29.9701369,
        "lng": 31.3187184
      },
      {
        "name": "مدينة بدر",
        "lat": 30.142806,
        "lng": 31.742824
      }
    ]
  },
  {
    "routeNumber": "GM1",
    "type": "ميني باص",
    "stops": [
      {
        "name": "عبد المنعم رياض",
        "lat": 30.048721,
        "lng": 31.2341946
      },
      {
        "name": "رمسيس",
        "lat": 30.0618579,
        "lng": 31.2460417
      },
      {
        "name": "غمرة",
        "lat": 30.068964,
        "lng": 31.2646738
      },
      {
        "name": "العباسية",
        "lat": 30.066667,
        "lng": 31.283333
      },
      {
        "name": "نادى السكة",
        "lat": 30.0561053,
        "lng": 31.3041965
      },
      {
        "name": "محور المشير",
        "lat": 30.0448605,
        "lng": 31.307958
      },
      {
        "name": "شارع التسعين",
        "lat": 30.024332549999997,
        "lng": 31.36644685
      },
      {
        "name": "التجمع الخامس",
        "lat": 30.0038046,
        "lng": 31.4249357
      }
    ]
  },
  {
    "routeNumber": "2",
    "type": "اتوبيس",
    "stops": [
      {
        "name": "الجامعة الأمريكية",
        "lat": 30.0428118,
        "lng": 31.2365859
      },
      {
        "name": "شارع التسعين",
        "lat": 30.043836149999997,
        "lng": 31.27227195
      },
      {
        "name": "محور المشير",
        "lat": 30.0448605,
        "lng": 31.307958
      },
      {
        "name": "امتداد رمسيس",
        "lat": 30.0626639,
        "lng": 31.3034503
      },
      {
        "name": "كوبرى الفنجرى",
        "lat": 30.0760067,
        "lng": 31.3008949
      },
      {
        "name": "سكة الوايلى",
        "lat": 30.0760067,
        "lng": 31.3008949
      },
      {
        "name": "قسم الحدائق",
        "lat": 30.0760067,
        "lng": 31.3008949
      }
    ]
  },
  {
    "routeNumber": "2",
    "type": "ميني باص",
    "stops": [
      {
        "name": "الوراق",
        "lat": 30.0537407,
        "lng": 31.2623036
      },
      {
        "name": "الحميات",
        "lat": 30.051802966666667,
        "lng": 31.245746999999998
      },
      {
        "name": "الكيت كات",
        "lat": 30.049865233333332,
        "lng": 31.2291904
      },
      {
        "name": "العجوزة",
        "lat": 30.0479275,
        "lng": 31.2126338
      },
      {
        "name": "الدقى",
        "lat": 30.0318685,
        "lng": 31.273044900000002
      },
      {
        "name": "الجيزة",
        "lat": 30.0158095,
        "lng": 31.333456
      },
      {
        "name": "شارع فيصل",
        "lat": 30.1339124,
        "lng": 31.3624015
      },
      {
        "name": "الرماية",
        "lat": 29.8991414,
        "lng": 31.6803071
      },
      {
        "name": "هضبة الهرم",
        "lat": 29.8991414,
        "lng": 31.6803071
      }
    ]
  },
  {
    "routeNumber": "Q2",
    "type": "ميني باص",
    "stops": [
      {
        "name": "كوبرى عرابى",
        "lat": 30.0626867,
        "lng": 31.2464846
      },
      {
        "name": "الشارع الجديد",
        "lat": 30.1399447,
        "lng": 31.3526092
      },
      {
        "name": "مسطرد",
        "lat": 30.1382602,
        "lng": 31.2962809
      },
      {
        "name": "المطرية",
        "lat": 30.1213759,
        "lng": 31.3139785
      },
      {
        "name": "الحلمية",
        "lat": 30.1125623,
        "lng": 31.3342801
      },
      {
        "name": "التجنيد",
        "lat": 30.1063333,
        "lng": 31.3241048
      },
      {
        "name": "الالف مسكن",
        "lat": 30.045909549999998,
        "lng": 31.27917455
      },
      {
        "name": "الجراج",
        "lat": 29.9854858,
        "lng": 31.2342443
      },
      {
        "name": "اول جمال",
        "lat": 30.06672445,
        "lng": 31.3259972
      },
      {
        "name": "موقف العاشر",
        "lat": 30.1479631,
        "lng": 31.4177501
      },
      {
        "name": "الهايكستب",
        "lat": 30.1328801,
        "lng": 31.3830106
      },
      {
        "name": "سوق العبور",
        "lat": 30.1576387,
        "lng": 31.4132474
      },
      {
        "name": "كارفور العبور",
        "lat": 30.0957531,
        "lng": 31.489164600000002
      },
      {
        "name": "الحى السادس",
        "lat": 30.0338675,
        "lng": 31.5650818
      },
      {
        "name": "صينية الخامس",
        "lat": 30.0902706,
        "lng": 31.46342495
      },
      {
        "name": "نادى العبور",
        "lat": 30.1466737,
        "lng": 31.3617681
      },
      {
        "name": "اولاد رجب",
        "lat": 30.063634,
        "lng": 31.4491356
      },
      {
        "name": "ال ٧٠ فدان",
        "lat": 29.9932329,
        "lng": 31.3258852
      },
      {
        "name": "اسكان المستقبل",
        "lat": 30.1396402,
        "lng": 31.6597861
      },
      {
        "name": "اسكان شباب العبور",
        "lat": 30.1396402,
        "lng": 31.6597861
      }
    ]
  },
  {
    "routeNumber": "3 ط",
    "type": "اتوبيس",
    "stops": [
      {
        "name": "كلية البنات الإسلامية",
        "lat": 29.7643918,
        "lng": 31.3316556
      },
      {
        "name": "طريق النصر",
        "lat": 29.7643918,
        "lng": 31.3316556
      },
      {
        "name": "امتداد رمسيس",
        "lat": 30.0626639,
        "lng": 31.3034503
      },
      {
        "name": "عباسية",
        "lat": 30.064528850000002,
        "lng": 31.33309325
      },
      {
        "name": "الفردوس",
        "lat": 30.0663938,
        "lng": 31.3627362
      },
      {
        "name": "الدراسة",
        "lat": 30.0528737,
        "lng": 31.2748995
      }
    ]
  },
  {
    "routeNumber": "3",
    "type": "ميني باص",
    "stops": [
      {
        "name": "مساكن زينهم",
        "lat": 30.026578,
        "lng": 31.2502145
      },
      {
        "name": "السيدة زينب",
        "lat": 30.0273241,
        "lng": 31.2404117
      },
      {
        "name": "باب الخلق",
        "lat": 30.0438945,
        "lng": 31.2526973
      },
      {
        "name": "عابدين",
        "lat": 30.044988,
        "lng": 31.2488627
      },
      {
        "name": "التحرير",
        "lat": 30.0434377,
        "lng": 31.398951
      },
      {
        "name": "الكورنيش",
        "lat": 29.9933796,
        "lng": 31.2969344
      },
      {
        "name": "ش شبرا",
        "lat": 30.04750125,
        "lng": 31.271220300000003
      },
      {
        "name": "المظلات",
        "lat": 30.1016229,
        "lng": 31.2455062
      },
      {
        "name": "عبود",
        "lat": 29.7999449,
        "lng": 31.3492699
      },
      {
        "name": "السواح",
        "lat": 30.1023241,
        "lng": 31.3040355
      },
      {
        "name": "الاميرية",
        "lat": 30.1000001,
        "lng": 31.283333
      },
      {
        "name": "سرايا القبة",
        "lat": 30.096712099999998,
        "lng": 31.299515399999997
      },
      {
        "name": "روكسى",
        "lat": 30.0934241,
        "lng": 31.3156978
      },
      {
        "name": "الكوربة",
        "lat": 30.0897941,
        "lng": 31.3224832
      },
      {
        "name": "صلاح الدين",
        "lat": 30.0292997,
        "lng": 31.2615831
      },
      {
        "name": "الإسماعيلية",
        "lat": 30.0470897,
        "lng": 31.2346944
      },
      {
        "name": "سفير",
        "lat": 29.9942486,
        "lng": 31.3187478
      },
      {
        "name": "تريامف",
        "lat": 30.02658725,
        "lng": 31.32621705
      },
      {
        "name": "سانت فاطيما",
        "lat": 30.0589259,
        "lng": 31.3336863
      },
      {
        "name": "ميدان الحجاز",
        "lat": 30.1115116,
        "lng": 31.3458229
      },
      {
        "name": "النزهة الجديدة",
        "lat": 30.1219136,
        "lng": 31.3721061
      }
    ]
  },
  {
    "routeNumber": "3",
    "type": "ميني باص",
    "stops": [
      {
        "name": "بشتيل",
        "lat": 30.0573315,
        "lng": 31.2425378
      },
      {
        "name": "عرابى",
        "lat": 30.0573315,
        "lng": 31.2425378
      },
      {
        "name": "سفنكس",
        "lat": 30.1091976,
        "lng": 30.8815747
      },
      {
        "name": "جامعة الدول",
        "lat": 30.0447299,
        "lng": 31.2331383
      },
      {
        "name": "احمد عبد العزيز",
        "lat": 29.9275806,
        "lng": 31.2820665
      },
      {
        "name": "الدقى",
        "lat": 29.97169505,
        "lng": 31.30776125
      },
      {
        "name": "الجيزة",
        "lat": 30.0158095,
        "lng": 31.333456
      },
      {
        "name": "العمرانية",
        "lat": 30.0155961,
        "lng": 31.7459069
      }
    ]
  },
  {
    "routeNumber": "MS3",
    "type": "ميني باص",
    "stops": [
      {
        "name": "رمسيس",
        "lat": 30.0618579,
        "lng": 31.2460417
      },
      {
        "name": "غمرة",
        "lat": 30.068964,
        "lng": 31.2646738
      },
      {
        "name": "العباسية",
        "lat": 30.066667,
        "lng": 31.283333
      },
      {
        "name": "نادى السكة",
        "lat": 30.0561053,
        "lng": 31.3041965
      },
      {
        "name": "رابعة",
        "lat": 30.0710223,
        "lng": 31.3377303
      },
      {
        "name": "اول عباس",
        "lat": 30.06504995,
        "lng": 31.3418466
      },
      {
        "name": "اول مكرم",
        "lat": 30.0590776,
        "lng": 31.3459629
      },
      {
        "name": "النادى الأهلى",
        "lat": 30.0712332,
        "lng": 31.3577033
      },
      {
        "name": "طريق السويس",
        "lat": 29.9701369,
        "lng": 31.3187184
      },
      {
        "name": "مدينة بدر",
        "lat": 30.142806,
        "lng": 31.742824
      }
    ]
  },
  {
    "routeNumber": "Q3",
    "type": "ميني باص",
    "stops": [
      {
        "name": "عبد المنعم رياض",
        "lat": 30.048721,
        "lng": 31.2341946
      },
      {
        "name": "إسعاف",
        "lat": 29.9818385,
        "lng": 31.2384605
      },
      {
        "name": "رمسيس",
        "lat": 30.0618579,
        "lng": 31.2460417
      },
      {
        "name": "غمرة",
        "lat": 30.068964,
        "lng": 31.2646738
      },
      {
        "name": "عباسية",
        "lat": 30.07205405,
        "lng": 31.2854591
      },
      {
        "name": "صلاح سالم",
        "lat": 30.0751441,
        "lng": 31.3062444
      },
      {
        "name": "كوبرى الفنجرى",
        "lat": 30.0760067,
        "lng": 31.3008949
      },
      {
        "name": "يوسف عباس",
        "lat": 30.053213,
        "lng": 31.3246782
      },
      {
        "name": "اول الطيران",
        "lat": 30.0672608,
        "lng": 31.330519366666667
      },
      {
        "name": "نفش الثورة",
        "lat": 30.0813086,
        "lng": 31.336360533333334
      },
      {
        "name": "كوبرى الجلاء",
        "lat": 30.0953564,
        "lng": 31.3422017
      },
      {
        "name": "شيراتون",
        "lat": 30.1075622,
        "lng": 31.4087057
      },
      {
        "name": "الكلية الحربية",
        "lat": 30.1092459,
        "lng": 31.3594347
      },
      {
        "name": "السندباد",
        "lat": 30.1555159,
        "lng": 31.6158207
      },
      {
        "name": "جوزيف تيتو",
        "lat": 30.1389147,
        "lng": 31.3968
      },
      {
        "name": "اول جمال",
        "lat": 30.1434389,
        "lng": 31.40727505
      },
      {
        "name": "موقف العاشر",
        "lat": 30.1479631,
        "lng": 31.4177501
      },
      {
        "name": "القديم",
        "lat": 30.1384725,
        "lng": 31.7150069
      },
      {
        "name": "سوق العبور",
        "lat": 30.1576387,
        "lng": 31.4132474
      },
      {
        "name": "كارفور العبور",
        "lat": 30.1539837,
        "lng": 31.396087633333334
      },
      {
        "name": "صنية الخامس",
        "lat": 30.1503287,
        "lng": 31.378927866666665
      },
      {
        "name": "نادى العبور",
        "lat": 30.1466737,
        "lng": 31.3617681
      },
      {
        "name": "جهاز العبور",
        "lat": 30.118993800000002,
        "lng": 31.3908906
      },
      {
        "name": "ابن حميدو",
        "lat": 30.0913139,
        "lng": 31.420013100000002
      },
      {
        "name": "اولاد رجب",
        "lat": 30.063634,
        "lng": 31.4491356
      },
      {
        "name": "ميدان الصورة",
        "lat": 30.063634,
        "lng": 31.4491356
      },
      {
        "name": "إسكان شباب العبور",
        "lat": 30.063634,
        "lng": 31.4491356
      },
      {
        "name": "مدينة العبور",
        "lat": 30.063634,
        "lng": 31.4491356
      }
    ]
  },
  {
    "routeNumber": "4",
    "type": "ميني باص",
    "stops": [
      {
        "name": "النزهة الجديدة",
        "lat": 30.1219136,
        "lng": 31.3721061
      },
      {
        "name": "الالف مسكن",
        "lat": 30.1167126,
        "lng": 31.3589645
      },
      {
        "name": "ميدان الحجاز",
        "lat": 30.1115116,
        "lng": 31.3458229
      },
      {
        "name": "سانت فاطيما",
        "lat": 30.0589259,
        "lng": 31.3336863
      },
      {
        "name": "تريامف",
        "lat": 30.02658725,
        "lng": 31.32621705
      },
      {
        "name": "سفير",
        "lat": 29.9942486,
        "lng": 31.3187478
      },
      {
        "name": "الإسماعيلية",
        "lat": 30.0470897,
        "lng": 31.2346944
      },
      {
        "name": "صلاح الدين",
        "lat": 30.0292997,
        "lng": 31.2615831
      },
      {
        "name": "الكوربة",
        "lat": 30.0897941,
        "lng": 31.3224832
      },
      {
        "name": "روكسى",
        "lat": 30.0934241,
        "lng": 31.3156978
      },
      {
        "name": "كوبرى القبة",
        "lat": 30.0833009,
        "lng": 31.3000582
      },
      {
        "name": "العباسية",
        "lat": 30.066667,
        "lng": 31.283333
      },
      {
        "name": "عبده باشا",
        "lat": 30.0653633,
        "lng": 31.2764414
      },
      {
        "name": "ميدان الجيش",
        "lat": 30.0619512,
        "lng": 31.26817
      },
      {
        "name": "الظاهر",
        "lat": 30.0620712,
        "lng": 31.2548915
      },
      {
        "name": "باب الشعرية",
        "lat": 30.0537108,
        "lng": 31.255875
      },
      {
        "name": "الموسكى",
        "lat": 30.0503528,
        "lng": 31.253695
      },
      {
        "name": "باب الخلق",
        "lat": 30.0438945,
        "lng": 31.2526973
      },
      {
        "name": "السيدة زينب",
        "lat": 30.0273241,
        "lng": 31.2404117
      },
      {
        "name": "القصر العيني",
        "lat": 30.0421311,
        "lng": 31.2358169
      },
      {
        "name": "شارع المنيل",
        "lat": 30.0114889,
        "lng": 31.2249469
      },
      {
        "name": "المقياس",
        "lat": 30.0126147,
        "lng": 31.2241067
      }
    ]
  },
  {
    "routeNumber": "4",
    "type": "ميني باص",
    "stops": [
      {
        "name": "الاميرية",
        "lat": 30.1000001,
        "lng": 31.283333
      },
      {
        "name": "سرايا القبة",
        "lat": 30.096712099999998,
        "lng": 31.299515399999997
      },
      {
        "name": "روكسى",
        "lat": 30.0934241,
        "lng": 31.3156978
      },
      {
        "name": "الكوربة",
        "lat": 30.0897941,
        "lng": 31.3224832
      },
      {
        "name": "صلاح الدين",
        "lat": 30.0292997,
        "lng": 31.2615831
      },
      {
        "name": "الإسماعيلية",
        "lat": 30.0470897,
        "lng": 31.2346944
      },
      {
        "name": "سفير",
        "lat": 29.9942486,
        "lng": 31.3187478
      },
      {
        "name": "نادى الجلاء",
        "lat": 30.0958581,
        "lng": 31.3457026
      },
      {
        "name": "ألماظة",
        "lat": 30.0887391,
        "lng": 31.3402843
      },
      {
        "name": "عزبة الهجانة 4.5",
        "lat": 30.0887391,
        "lng": 31.3402843
      }
    ]
  },
  {
    "routeNumber": "4",
    "type": "ميني باص",
    "stops": [
      {
        "name": "زنين",
        "lat": 30.0191701,
        "lng": 31.5037433
      },
      {
        "name": "جامعة القاهرة",
        "lat": 30.0191701,
        "lng": 31.5037433
      },
      {
        "name": "القصر العينى",
        "lat": 30.0421311,
        "lng": 31.2358169
      },
      {
        "name": "التحرير",
        "lat": 30.0434377,
        "lng": 31.398951
      },
      {
        "name": "الاسعاف",
        "lat": 30.0535483,
        "lng": 31.2388137
      },
      {
        "name": "رمسيس",
        "lat": 30.0618579,
        "lng": 31.2460417
      },
      {
        "name": "غمرة",
        "lat": 30.068964,
        "lng": 31.2646738
      },
      {
        "name": "العباسية",
        "lat": 30.066667,
        "lng": 31.283333
      },
      {
        "name": "نادى السكة",
        "lat": 30.0561053,
        "lng": 31.3041965
      },
      {
        "name": "جامعة الأزهر",
        "lat": 30.0537765,
        "lng": 31.3247217
      },
      {
        "name": "رابعة",
        "lat": 30.0710223,
        "lng": 31.3377303
      },
      {
        "name": "الحى السابع",
        "lat": 30.063237866666665,
        "lng": 31.355141133333333
      },
      {
        "name": "الحى العاشر",
        "lat": 30.055453433333334,
        "lng": 31.372551966666666
      },
      {
        "name": "زهراء مدينة نصر",
        "lat": 30.047669,
        "lng": 31.3899628
      },
      {
        "name": "التجمع الاول",
        "lat": 30.0632671,
        "lng": 31.4544799
      },
      {
        "name": "بوابة 6 الرحاب",
        "lat": 30.0632671,
        "lng": 31.4544799
      }
    ]
  },
  {
    "routeNumber": "4",
    "type": "ميني باص",
    "stops": [
      {
        "name": "70 مساكن اسكو",
        "lat": 30.1399447,
        "lng": 31.3526092
      },
      {
        "name": "بهتيم",
        "lat": 30.1399447,
        "lng": 31.3526092
      },
      {
        "name": "الشارع الجديد",
        "lat": 30.1399447,
        "lng": 31.3526092
      },
      {
        "name": "مسطرد",
        "lat": 30.1382602,
        "lng": 31.2962809
      },
      {
        "name": "المطرية",
        "lat": 30.1213759,
        "lng": 31.3139785
      },
      {
        "name": "الحلمية",
        "lat": 30.1125623,
        "lng": 31.3342801
      },
      {
        "name": "التجنيد",
        "lat": 30.1063333,
        "lng": 31.3241048
      },
      {
        "name": "المحكمة",
        "lat": 29.9687916,
        "lng": 31.2396683
      },
      {
        "name": "سفير",
        "lat": 29.9942486,
        "lng": 31.3187478
      },
      {
        "name": "السبع عمارات",
        "lat": 29.7883102,
        "lng": 31.3112741
      },
      {
        "name": "كلية البنات",
        "lat": 30.0815942,
        "lng": 31.3290937
      },
      {
        "name": "رابعة",
        "lat": 30.0710223,
        "lng": 31.3377303
      },
      {
        "name": "عباس العقاد",
        "lat": 30.0382326,
        "lng": 31.5507996
      },
      {
        "name": "مصطفى النحاس",
        "lat": 30.1529642,
        "lng": 31.6185573
      },
      {
        "name": "التبة",
        "lat": 30.0608498,
        "lng": 31.3779325
      },
      {
        "name": "الحى العاشر",
        "lat": 30.0542594,
        "lng": 31.38394765
      },
      {
        "name": "زهراء مدينة نصر",
        "lat": 30.047669,
        "lng": 31.3899628
      },
      {
        "name": "كايرو فيستيفال",
        "lat": 30.040950533333334,
        "lng": 31.419842166666665
      },
      {
        "name": "شارع التسعين",
        "lat": 30.034232066666664,
        "lng": 31.449721533333335
      },
      {
        "name": "الغاز",
        "lat": 30.0275136,
        "lng": 31.4796009
      },
      {
        "name": "اخناتون",
        "lat": 30.005501,
        "lng": 31.4136968
      },
      {
        "name": "مسجد الحمد",
        "lat": 30.017351,
        "lng": 31.2816817
      },
      {
        "name": "ارابيلا",
        "lat": 29.9884305,
        "lng": 31.4247686
      },
      {
        "name": "القطامية",
        "lat": 29.976194,
        "lng": 31.4046992
      }
    ]
  },
  {
    "routeNumber": "4",
    "type": "ميني باص",
    "stops": [
      {
        "name": "الهايكستب",
        "lat": 30.1328801,
        "lng": 31.3830106
      },
      {
        "name": "اول جمال",
        "lat": 30.05918295,
        "lng": 31.30862745
      },
      {
        "name": "الجراج",
        "lat": 29.9854858,
        "lng": 31.2342443
      },
      {
        "name": "الالف مسكن",
        "lat": 30.0484987,
        "lng": 31.2900336
      },
      {
        "name": "ميدان الحجاز",
        "lat": 30.1115116,
        "lng": 31.3458229
      },
      {
        "name": "سانت فاطيما",
        "lat": 30.0589259,
        "lng": 31.3336863
      },
      {
        "name": "تريامف",
        "lat": 30.02658725,
        "lng": 31.32621705
      },
      {
        "name": "سفير",
        "lat": 29.9942486,
        "lng": 31.3187478
      },
      {
        "name": "الإسماعيلية",
        "lat": 30.0470897,
        "lng": 31.2346944
      },
      {
        "name": "صلاح الدين",
        "lat": 30.0292997,
        "lng": 31.2615831
      },
      {
        "name": "الكوربة",
        "lat": 30.0897941,
        "lng": 31.3224832
      },
      {
        "name": "روكسى",
        "lat": 30.0934241,
        "lng": 31.3156978
      },
      {
        "name": "كوبرى القبة",
        "lat": 30.0833009,
        "lng": 31.3000582
      },
      {
        "name": "العباسية",
        "lat": 30.066667,
        "lng": 31.283333
      },
      {
        "name": "عبده باشا",
        "lat": 30.0653633,
        "lng": 31.2764414
      },
      {
        "name": "ميدان الجيش",
        "lat": 30.0619512,
        "lng": 31.26817
      },
      {
        "name": "باب الشعرية",
        "lat": 30.0537108,
        "lng": 31.255875
      },
      {
        "name": "الموسكى",
        "lat": 30.0503528,
        "lng": 31.253695
      },
      {
        "name": "باب الخلق",
        "lat": 30.0438945,
        "lng": 31.2526973
      },
      {
        "name": "السيدة زينب",
        "lat": 30.0273241,
        "lng": 31.2404117
      },
      {
        "name": "القصر العيني",
        "lat": 30.0421311,
        "lng": 31.2358169
      },
      {
        "name": "شارع المنيل",
        "lat": 30.0114889,
        "lng": 31.2249469
      },
      {
        "name": "المقياس",
        "lat": 30.0126147,
        "lng": 31.2241067
      }
    ]
  },
  {
    "routeNumber": "4",
    "type": "ميني باص",
    "stops": [
      {
        "name": "مسطرد",
        "lat": 30.1382602,
        "lng": 31.2962809
      },
      {
        "name": "المطرية",
        "lat": 30.1213759,
        "lng": 31.3139785
      },
      {
        "name": "الحلمية",
        "lat": 30.1125623,
        "lng": 31.3342801
      },
      {
        "name": "التجنيد",
        "lat": 30.1063333,
        "lng": 31.3241048
      },
      {
        "name": "جسر السويس",
        "lat": 30.1271482,
        "lng": 31.37092745
      },
      {
        "name": "موقف العاشر",
        "lat": 30.1479631,
        "lng": 31.4177501
      },
      {
        "name": "كرسي الإسماعيلية الصحراوى",
        "lat": 30.14538455,
        "lng": 31.58028705
      },
      {
        "name": "مدينة بدر",
        "lat": 30.142806,
        "lng": 31.742824
      }
    ]
  },
  {
    "routeNumber": "MS4",
    "type": "ميني باص",
    "stops": [
      {
        "name": "مسطرد",
        "lat": 30.1382602,
        "lng": 31.2962809
      },
      {
        "name": "المطرية",
        "lat": 30.1213759,
        "lng": 31.3139785
      },
      {
        "name": "الحلمية",
        "lat": 30.1125623,
        "lng": 31.3342801
      },
      {
        "name": "التجنيد",
        "lat": 30.1063333,
        "lng": 31.3241048
      },
      {
        "name": "الالف مسكن",
        "lat": 30.045909549999998,
        "lng": 31.27917455
      },
      {
        "name": "الجراج",
        "lat": 29.9854858,
        "lng": 31.2342443
      },
      {
        "name": "سوق القنال",
        "lat": 30.0396449,
        "lng": 31.2954129
      },
      {
        "name": "اول جمال",
        "lat": 30.093804,
        "lng": 31.3565815
      },
      {
        "name": "موقف العاشر",
        "lat": 30.1479631,
        "lng": 31.4177501
      },
      {
        "name": "طريق الإسماعيلية الصحراوى",
        "lat": 30.301867,
        "lng": 31.8141442
      },
      {
        "name": "مدينة بدر",
        "lat": 30.142806,
        "lng": 31.742824
      }
    ]
  },
  {
    "routeNumber": "5",
    "type": "ميني باص",
    "stops": [
      {
        "name": "زنين",
        "lat": 30.0191701,
        "lng": 31.5037433
      },
      {
        "name": "جامعة القاهرة",
        "lat": 30.0191701,
        "lng": 31.5037433
      },
      {
        "name": "القصر العيني",
        "lat": 30.0421311,
        "lng": 31.2358169
      },
      {
        "name": "التحرير",
        "lat": 30.0434377,
        "lng": 31.398951
      },
      {
        "name": "رمسيس",
        "lat": 30.0618579,
        "lng": 31.2460417
      },
      {
        "name": "غمرة",
        "lat": 30.068964,
        "lng": 31.2646738
      },
      {
        "name": "العباسية",
        "lat": 30.066667,
        "lng": 31.283333
      },
      {
        "name": "ارض المعارض",
        "lat": 30.07211135,
        "lng": 31.2971211
      },
      {
        "name": "عمارات العبور",
        "lat": 30.0775557,
        "lng": 31.3109092
      },
      {
        "name": "الطيران",
        "lat": 29.8422306,
        "lng": 31.3466338
      },
      {
        "name": "مصطفى النحاس",
        "lat": 30.1529642,
        "lng": 31.6185573
      },
      {
        "name": "التبة",
        "lat": 30.0608498,
        "lng": 31.3779325
      }
    ]
  },
  {
    "routeNumber": "6",
    "type": "ميني باص",
    "stops": [
      {
        "name": "المظلات",
        "lat": 30.1016229,
        "lng": 31.2455062
      },
      {
        "name": "عبود",
        "lat": 29.7999449,
        "lng": 31.3492699
      },
      {
        "name": "ابو وافية",
        "lat": 29.887249233333332,
        "lng": 31.314860499999998
      },
      {
        "name": "شارع الترعة البولاقية",
        "lat": 29.974553566666668,
        "lng": 31.2804511
      },
      {
        "name": "رمسيس",
        "lat": 30.0618579,
        "lng": 31.2460417
      },
      {
        "name": "غمرة",
        "lat": 30.068964,
        "lng": 31.2646738
      },
      {
        "name": "العباسية",
        "lat": 30.066667,
        "lng": 31.283333
      },
      {
        "name": "كوبرى القبة",
        "lat": 30.0833009,
        "lng": 31.3000582
      },
      {
        "name": "روكسى",
        "lat": 30.0934241,
        "lng": 31.3156978
      },
      {
        "name": "كلية البنات",
        "lat": 30.0815942,
        "lng": 31.3290937
      }
    ]
  },
  {
    "routeNumber": "7",
    "type": "اتوبيس",
    "stops": [
      {
        "name": "العمرانية",
        "lat": 30.0155961,
        "lng": 31.7459069
      },
      {
        "name": "الجيزة",
        "lat": 30.0158095,
        "lng": 31.333456
      },
      {
        "name": "القصر العيني",
        "lat": 30.0421311,
        "lng": 31.2358169
      },
      {
        "name": "السيدة زينب",
        "lat": 30.0273241,
        "lng": 31.2404117
      },
      {
        "name": "باب الخلق",
        "lat": 30.0438945,
        "lng": 31.2526973
      },
      {
        "name": "الموسكي",
        "lat": 30.0503528,
        "lng": 31.253695
      },
      {
        "name": "العتبة",
        "lat": 30.0509915,
        "lng": 31.2499736
      }
    ]
  },
  {
    "routeNumber": "7",
    "type": "ميني باص",
    "stops": [
      {
        "name": "زهراء عين شمس",
        "lat": 30.1129263,
        "lng": 31.3221991
      },
      {
        "name": "الحلمية",
        "lat": 30.1125623,
        "lng": 31.3342801
      },
      {
        "name": "سرايا القبة",
        "lat": 30.097931600000003,
        "lng": 31.317169149999998
      },
      {
        "name": "كوبرى القبة",
        "lat": 30.0833009,
        "lng": 31.3000582
      },
      {
        "name": "مصر و السودان",
        "lat": 30.0789573,
        "lng": 31.2780478
      },
      {
        "name": "غمرة",
        "lat": 30.068964,
        "lng": 31.2646738
      },
      {
        "name": "رمسيس",
        "lat": 30.0618579,
        "lng": 31.2460417
      },
      {
        "name": "الاسعاف",
        "lat": 30.0535483,
        "lng": 31.2388137
      },
      {
        "name": "التحرير",
        "lat": 30.0434377,
        "lng": 31.398951
      },
      {
        "name": "عابدين",
        "lat": 30.044988,
        "lng": 31.2488627
      },
      {
        "name": "باب الخلق",
        "lat": 30.0438945,
        "lng": 31.2526973
      },
      {
        "name": "السيدة زينب",
        "lat": 30.0273241,
        "lng": 31.2404117
      },
      {
        "name": "القلعة",
        "lat": 30.0273241,
        "lng": 31.2404117
      }
    ]
  },
  {
    "routeNumber": "7",
    "type": "ميني باص",
    "stops": [
      {
        "name": "بشتيل",
        "lat": 30.0573315,
        "lng": 31.2425378
      },
      {
        "name": "عرابى",
        "lat": 30.0573315,
        "lng": 31.2425378
      },
      {
        "name": "سفنكس",
        "lat": 30.1091976,
        "lng": 30.8815747
      },
      {
        "name": "جامعة الدول",
        "lat": 30.0447299,
        "lng": 31.2331383
      },
      {
        "name": "احمد عبد العزيز",
        "lat": 29.9275806,
        "lng": 31.2820665
      },
      {
        "name": "الدقى",
        "lat": 29.973375349999998,
        "lng": 31.392904899999998
      },
      {
        "name": "جامعة القاهرة",
        "lat": 30.0191701,
        "lng": 31.5037433
      },
      {
        "name": "الجيزة",
        "lat": 30.0158095,
        "lng": 31.333456
      },
      {
        "name": "الهرم",
        "lat": 30.1667098,
        "lng": 31.6881835
      },
      {
        "name": "الرماية",
        "lat": 29.8991414,
        "lng": 31.6803071
      },
      {
        "name": "هضبة الهرم",
        "lat": 29.8991414,
        "lng": 31.6803071
      }
    ]
  },
  {
    "routeNumber": "Q7",
    "type": "ميني باص",
    "stops": [
      {
        "name": "زهراء عين شمس",
        "lat": 30.1129263,
        "lng": 31.3221991
      },
      {
        "name": "المساكن",
        "lat": 30.0102952,
        "lng": 31.3384041
      },
      {
        "name": "الجراج",
        "lat": 29.9854858,
        "lng": 31.2342443
      },
      {
        "name": "الالف مسكن",
        "lat": 30.0484987,
        "lng": 31.2900336
      },
      {
        "name": "ميدان الحجاز",
        "lat": 30.1115116,
        "lng": 31.3458229
      },
      {
        "name": "المحكمة",
        "lat": 29.9687916,
        "lng": 31.2396683
      },
      {
        "name": "روكسى",
        "lat": 30.0934241,
        "lng": 31.3156978
      },
      {
        "name": "كوبرى القبة",
        "lat": 30.0833009,
        "lng": 31.3000582
      },
      {
        "name": "العباسية",
        "lat": 30.066667,
        "lng": 31.283333
      },
      {
        "name": "ميدان الجيش",
        "lat": 30.0619512,
        "lng": 31.26817
      },
      {
        "name": "باب الشعرية",
        "lat": 30.0537108,
        "lng": 31.255875
      },
      {
        "name": "الموسكى",
        "lat": 30.0503528,
        "lng": 31.253695
      },
      {
        "name": "باب الخلق",
        "lat": 30.0438945,
        "lng": 31.2526973
      },
      {
        "name": "السيدة زينب",
        "lat": 30.0273241,
        "lng": 31.2404117
      },
      {
        "name": "القصر العيني",
        "lat": 30.0421311,
        "lng": 31.2358169
      },
      {
        "name": "جامعة القاهرة",
        "lat": 30.0191701,
        "lng": 31.5037433
      },
      {
        "name": "الجيزة",
        "lat": 30.0158095,
        "lng": 31.333456
      },
      {
        "name": "العمرانية",
        "lat": 30.0155961,
        "lng": 31.7459069
      }
    ]
  },
  {
    "routeNumber": "8 ط",
    "type": "اتوبيس",
    "stops": [
      {
        "name": "مسرة",
        "lat": 30.0847105,
        "lng": 31.2453057
      },
      {
        "name": "شارع شبرا",
        "lat": 30.0847105,
        "lng": 31.2453057
      },
      {
        "name": "المظلات",
        "lat": 30.1016229,
        "lng": 31.2455062
      },
      {
        "name": "سعد سليم",
        "lat": 30.1024068,
        "lng": 31.249988
      },
      {
        "name": "الاسماعيلية",
        "lat": 30.0470897,
        "lng": 31.2346944
      },
      {
        "name": "ترعة بورسعيد",
        "lat": 30.053615466666667,
        "lng": 31.250907266666665
      },
      {
        "name": "حدائق القبة",
        "lat": 30.060141233333333,
        "lng": 31.267120133333332
      },
      {
        "name": "العباسية",
        "lat": 30.066667,
        "lng": 31.283333
      }
    ]
  },
  {
    "routeNumber": "8/",
    "type": "اتوبيس",
    "stops": [
      {
        "name": "احمد حلمى",
        "lat": 30.0681787,
        "lng": 31.2521651
      },
      {
        "name": "الاسعاف",
        "lat": 30.0535483,
        "lng": 31.2388137
      },
      {
        "name": "التحرير",
        "lat": 30.0434377,
        "lng": 31.398951
      },
      {
        "name": "القصر العيني",
        "lat": 30.0421311,
        "lng": 31.2358169
      },
      {
        "name": "الجيزة",
        "lat": 30.0158095,
        "lng": 31.333456
      },
      {
        "name": "ش الهرم",
        "lat": 30.0176002,
        "lng": 31.37757205
      },
      {
        "name": "المريوطية",
        "lat": 30.0193909,
        "lng": 31.4216881
      }
    ]
  },
  {
    "routeNumber": "8",
    "type": "ميني باص",
    "stops": [
      {
        "name": "الاميرية",
        "lat": 30.1000001,
        "lng": 31.283333
      },
      {
        "name": "سرايا القبة",
        "lat": 30.096712099999998,
        "lng": 31.299515399999997
      },
      {
        "name": "روكسى",
        "lat": 30.0934241,
        "lng": 31.3156978
      },
      {
        "name": "الكوربة",
        "lat": 30.0897941,
        "lng": 31.3224832
      },
      {
        "name": "صلاح الدين",
        "lat": 30.0292997,
        "lng": 31.2615831
      },
      {
        "name": "الإسماعيلية",
        "lat": 30.0470897,
        "lng": 31.2346944
      },
      {
        "name": "سفير",
        "lat": 29.9942486,
        "lng": 31.3187478
      },
      {
        "name": "نادى الجلاء",
        "lat": 30.0958581,
        "lng": 31.3457026
      },
      {
        "name": "ألماظة",
        "lat": 30.0887391,
        "lng": 31.3402843
      },
      {
        "name": "عزبة الهجانة 4.5",
        "lat": 30.029438,
        "lng": 31.32950135
      },
      {
        "name": "طريق السويس",
        "lat": 29.9701369,
        "lng": 31.3187184
      },
      {
        "name": "الرحاب بوابة 6",
        "lat": 29.9701369,
        "lng": 31.3187184
      }
    ]
  },
  {
    "routeNumber": "Q8",
    "type": "ميني باص",
    "stops": [
      {
        "name": "الزاوية الحمراء",
        "lat": 30.0561053,
        "lng": 31.3041965
      },
      {
        "name": "حدائق القبة",
        "lat": 30.0561053,
        "lng": 31.3041965
      },
      {
        "name": "ارض المعارض",
        "lat": 30.0561053,
        "lng": 31.3041965
      },
      {
        "name": "نادى السكة",
        "lat": 30.0561053,
        "lng": 31.3041965
      },
      {
        "name": "جامعة الأزهر",
        "lat": 30.0537765,
        "lng": 31.3247217
      },
      {
        "name": "رابعة",
        "lat": 30.0710223,
        "lng": 31.3377303
      },
      {
        "name": "اول عباس",
        "lat": 30.054627449999998,
        "lng": 31.44426495
      },
      {
        "name": "عباس العقاد",
        "lat": 30.0382326,
        "lng": 31.5507996
      },
      {
        "name": "مصطفى النحاس",
        "lat": 30.1529642,
        "lng": 31.6185573
      },
      {
        "name": "التبة",
        "lat": 30.0608498,
        "lng": 31.3779325
      },
      {
        "name": "الحى العاشر",
        "lat": 30.0542594,
        "lng": 31.38394765
      },
      {
        "name": "زهراء مدينة نصر",
        "lat": 30.047669,
        "lng": 31.3899628
      },
      {
        "name": "التجمع الاول",
        "lat": 30.0632671,
        "lng": 31.4544799
      }
    ]
  },
  {
    "routeNumber": "9 ط",
    "type": "اتوبيس",
    "stops": [
      {
        "name": "القلعة",
        "lat": 30.0564287,
        "lng": 31.4010038
      },
      {
        "name": "شارع بورسعيد",
        "lat": 30.0564287,
        "lng": 31.4010038
      },
      {
        "name": "ميدان السيدة زينب",
        "lat": 30.0224719,
        "lng": 31.2514419
      },
      {
        "name": "شارع قصر العينى",
        "lat": 30.0315175,
        "lng": 31.2326819
      },
      {
        "name": "كوبرى الجامعة",
        "lat": 30.0315175,
        "lng": 31.2326819
      },
      {
        "name": "بين السرايات",
        "lat": 30.0315175,
        "lng": 31.2326819
      },
      {
        "name": "زنين",
        "lat": 30.0315175,
        "lng": 31.2326819
      }
    ]
  },
  {
    "routeNumber": "9",
    "type": "ميني باص",
    "stops": [
      {
        "name": "العتبة",
        "lat": 30.0509915,
        "lng": 31.2499736
      },
      {
        "name": "باب الشعرية",
        "lat": 30.0537108,
        "lng": 31.255875
      },
      {
        "name": "ميدان الجيش",
        "lat": 30.0619512,
        "lng": 31.26817
      },
      {
        "name": "عبده باشا",
        "lat": 30.0653633,
        "lng": 31.2764414
      },
      {
        "name": "العباسية",
        "lat": 30.066667,
        "lng": 31.283333
      },
      {
        "name": "كوبرى القبة",
        "lat": 30.0833009,
        "lng": 31.3000582
      },
      {
        "name": "روكسى",
        "lat": 30.0934241,
        "lng": 31.3156978
      },
      {
        "name": "المحكمة",
        "lat": 29.9687916,
        "lng": 31.2396683
      },
      {
        "name": "التجنيد",
        "lat": 30.1063333,
        "lng": 31.3241048
      },
      {
        "name": "جسر السويس",
        "lat": 30.1063333,
        "lng": 31.3241048
      },
      {
        "name": "مدينة السلام اسبيكو",
        "lat": 30.1063333,
        "lng": 31.3241048
      }
    ]
  },
  {
    "routeNumber": "N9",
    "type": "ميني باص",
    "stops": [
      {
        "name": "رمسيس",
        "lat": 30.0618579,
        "lng": 31.2460417
      },
      {
        "name": "الإسعاف",
        "lat": 30.0535483,
        "lng": 31.2388137
      },
      {
        "name": "التحرير",
        "lat": 30.0434377,
        "lng": 31.398951
      },
      {
        "name": "القصر العينى",
        "lat": 30.0421311,
        "lng": 31.2358169
      },
      {
        "name": "الجيزة",
        "lat": 30.0158095,
        "lng": 31.333456
      },
      {
        "name": "شارع الهرم",
        "lat": 29.95747545,
        "lng": 31.506881550000003
      },
      {
        "name": "الرماية",
        "lat": 29.8991414,
        "lng": 31.6803071
      },
      {
        "name": "حدائق اكتوبر",
        "lat": 29.8991414,
        "lng": 31.6803071
      }
    ]
  },
  {
    "routeNumber": "Q9",
    "type": "ميني باص",
    "stops": [
      {
        "name": "العبور الجديدة",
        "lat": 30.0762724,
        "lng": 31.3049073
      },
      {
        "name": "كارفور العبور",
        "lat": 30.11695555,
        "lng": 31.35907735
      },
      {
        "name": "سوق العبور",
        "lat": 30.1576387,
        "lng": 31.4132474
      },
      {
        "name": "الهايكستب",
        "lat": 30.1328801,
        "lng": 31.3830106
      },
      {
        "name": "موقف العاشر",
        "lat": 30.1479631,
        "lng": 31.4177501
      },
      {
        "name": "اول جمال",
        "lat": 30.1406386,
        "lng": 31.3958906
      },
      {
        "name": "بيرتى",
        "lat": 30.1333141,
        "lng": 31.3740311
      },
      {
        "name": "الجراج",
        "lat": 29.9854858,
        "lng": 31.2342443
      },
      {
        "name": "الالف مسكن",
        "lat": 30.0484987,
        "lng": 31.2900336
      },
      {
        "name": "ميدان الحجاز",
        "lat": 30.1115116,
        "lng": 31.3458229
      },
      {
        "name": "سانت فاطيما",
        "lat": 30.0589259,
        "lng": 31.3336863
      },
      {
        "name": "تريامف",
        "lat": 30.02658725,
        "lng": 31.32621705
      },
      {
        "name": "سفير",
        "lat": 29.9942486,
        "lng": 31.3187478
      },
      {
        "name": "الإسماعيلية",
        "lat": 30.0470897,
        "lng": 31.2346944
      },
      {
        "name": "صلاح الدين",
        "lat": 30.0292997,
        "lng": 31.2615831
      },
      {
        "name": "الكوربة",
        "lat": 30.0897941,
        "lng": 31.3224832
      },
      {
        "name": "روكسى",
        "lat": 30.0934241,
        "lng": 31.3156978
      },
      {
        "name": "كوبرى القبة",
        "lat": 30.0833009,
        "lng": 31.3000582
      },
      {
        "name": "العباسية",
        "lat": 30.066667,
        "lng": 31.283333
      },
      {
        "name": "عبده باشا",
        "lat": 30.0653633,
        "lng": 31.2764414
      },
      {
        "name": "ميدان الجيش",
        "lat": 30.0619512,
        "lng": 31.26817
      },
      {
        "name": "الظاهر",
        "lat": 30.0620712,
        "lng": 31.2548915
      },
      {
        "name": "باب الشعرية",
        "lat": 30.0537108,
        "lng": 31.255875
      },
      {
        "name": "الموسكى",
        "lat": 30.0503528,
        "lng": 31.253695
      },
      {
        "name": "باب الخلق",
        "lat": 30.0438945,
        "lng": 31.2526973
      },
      {
        "name": "السيدة زينب",
        "lat": 30.0273241,
        "lng": 31.2404117
      },
      {
        "name": "القصر العيني",
        "lat": 30.0421311,
        "lng": 31.2358169
      },
      {
        "name": "جامعة القاهرة",
        "lat": 30.0191701,
        "lng": 31.5037433
      },
      {
        "name": "زنين",
        "lat": 30.0191701,
        "lng": 31.5037433
      },
      {
        "name": "صفط اللبن",
        "lat": 30.0191701,
        "lng": 31.5037433
      }
    ]
  },
  {
    "routeNumber": "10",
    "type": "ميني باص",
    "stops": [
      {
        "name": "ابراهيم بك",
        "lat": 30.0377629,
        "lng": 31.2527016
      },
      {
        "name": "الشارع الجديد",
        "lat": 30.1399447,
        "lng": 31.3526092
      },
      {
        "name": "مسطرد",
        "lat": 30.1382602,
        "lng": 31.2962809
      },
      {
        "name": "المطرية",
        "lat": 30.1213759,
        "lng": 31.3139785
      },
      {
        "name": "الحلمية",
        "lat": 30.1125623,
        "lng": 31.3342801
      },
      {
        "name": "سرايا القبة",
        "lat": 30.1029932,
        "lng": 31.324988949999998
      },
      {
        "name": "روكسى",
        "lat": 30.0934241,
        "lng": 31.3156978
      },
      {
        "name": "كلية البنات",
        "lat": 30.0815942,
        "lng": 31.3290937
      },
      {
        "name": "رابعة",
        "lat": 30.0710223,
        "lng": 31.3377303
      },
      {
        "name": "عباس العقاد",
        "lat": 30.0382326,
        "lng": 31.5507996
      },
      {
        "name": "مصطفى النحاس",
        "lat": 30.1529642,
        "lng": 31.6185573
      },
      {
        "name": "التبة",
        "lat": 30.0608498,
        "lng": 31.3779325
      },
      {
        "name": "الحى العاشر",
        "lat": 30.0542594,
        "lng": 31.38394765
      },
      {
        "name": "زهراء مدينة نصر",
        "lat": 30.047669,
        "lng": 31.3899628
      },
      {
        "name": "التجمع الاول",
        "lat": 30.0632671,
        "lng": 31.4544799
      }
    ]
  },
  {
    "routeNumber": "11",
    "type": "اتوبيس",
    "stops": [
      {
        "name": "المطرية",
        "lat": 30.1213759,
        "lng": 31.3139785
      },
      {
        "name": "شارع ابو بكر الصديق",
        "lat": 30.1045654,
        "lng": 31.3273118
      },
      {
        "name": "م الحلمية",
        "lat": 30.0974007,
        "lng": 31.3480613
      },
      {
        "name": "ميدان الجلاء",
        "lat": 30.1470553,
        "lng": 31.7061988
      },
      {
        "name": "شارع النزهة",
        "lat": 30.116853,
        "lng": 31.6135077
      },
      {
        "name": "ميدان الساعة",
        "lat": 30.0691244,
        "lng": 31.3383318
      }
    ]
  },
  {
    "routeNumber": "11/",
    "type": "اتوبيس",
    "stops": [
      {
        "name": "المسلة",
        "lat": 30.0920694,
        "lng": 31.324705
      },
      {
        "name": "المطرية",
        "lat": 30.1213759,
        "lng": 31.3139785
      },
      {
        "name": "شارع أبو بكر الصديق",
        "lat": 29.8239992,
        "lng": 31.3659309
      },
      {
        "name": "م الحلمية",
        "lat": 30.0974007,
        "lng": 31.3480613
      },
      {
        "name": "ميدان الجلاء",
        "lat": 30.1470553,
        "lng": 31.7061988
      },
      {
        "name": "السبع عمارات",
        "lat": 29.7883102,
        "lng": 31.3112741
      },
      {
        "name": "مساكن ألماظة",
        "lat": 30.0804412,
        "lng": 31.3783315
      }
    ]
  },
  {
    "routeNumber": "11 ط",
    "type": "اتوبيس",
    "stops": [
      {
        "name": "شرق شبرا الخيمة",
        "lat": 30.0626867,
        "lng": 31.2464846
      },
      {
        "name": "كوبرى عرابى",
        "lat": 30.0626867,
        "lng": 31.2464846
      },
      {
        "name": "سعد سليم",
        "lat": 30.1024068,
        "lng": 31.249988
      },
      {
        "name": "ترعة الإسماعيلية",
        "lat": 30.48969,
        "lng": 31.6936229
      },
      {
        "name": "السواح",
        "lat": 30.1023241,
        "lng": 31.3040355
      },
      {
        "name": "حدائق القبة",
        "lat": 30.1023241,
        "lng": 31.3040355
      },
      {
        "name": "عباسية",
        "lat": 30.1023241,
        "lng": 31.3040355
      }
    ]
  },
  {
    "routeNumber": "11",
    "type": "اتوبيس",
    "stops": [
      {
        "name": "إبراهيم بك",
        "lat": 30.0377629,
        "lng": 31.2527016
      },
      {
        "name": "مسطرد",
        "lat": 30.1382602,
        "lng": 31.2962809
      },
      {
        "name": "المطرية",
        "lat": 30.1213759,
        "lng": 31.3139785
      },
      {
        "name": "الحلمية",
        "lat": 30.1125623,
        "lng": 31.3342801
      },
      {
        "name": "التجنيد",
        "lat": 30.1063333,
        "lng": 31.3241048
      },
      {
        "name": "المحكمة",
        "lat": 29.9687916,
        "lng": 31.2396683
      },
      {
        "name": "سفير",
        "lat": 29.9942486,
        "lng": 31.3187478
      },
      {
        "name": "اول عباس",
        "lat": 29.9942486,
        "lng": 31.3187478
      }
    ]
  },
  {
    "routeNumber": "11",
    "type": "ميني باص",
    "stops": [
      {
        "name": "المظلات",
        "lat": 30.1016229,
        "lng": 31.2455062
      },
      {
        "name": "شارع شبرا",
        "lat": 30.0847105,
        "lng": 31.2453057
      },
      {
        "name": "رمسيس",
        "lat": 30.0618579,
        "lng": 31.2460417
      },
      {
        "name": "غمرة",
        "lat": 30.068964,
        "lng": 31.2646738
      },
      {
        "name": "العباسية",
        "lat": 30.066667,
        "lng": 31.283333
      },
      {
        "name": "كوبرى القبة",
        "lat": 30.0833009,
        "lng": 31.3000582
      },
      {
        "name": "روكسى",
        "lat": 30.0934241,
        "lng": 31.3156978
      },
      {
        "name": "الميرلاند",
        "lat": 30.0969461,
        "lng": 31.3171251
      },
      {
        "name": "المحكمة",
        "lat": 29.9687916,
        "lng": 31.2396683
      },
      {
        "name": "هليوبوليس",
        "lat": 30.1079599,
        "lng": 31.3381815
      },
      {
        "name": "ميدان الحجاز",
        "lat": 30.1115116,
        "lng": 31.3458229
      },
      {
        "name": "الكلية الحربية",
        "lat": 30.1092459,
        "lng": 31.3594347
      },
      {
        "name": "مساكن شيراتون",
        "lat": 30.1075622,
        "lng": 31.4087057
      }
    ]
  },
  {
    "routeNumber": "12",
    "type": "اتوبيس",
    "stops": [
      {
        "name": "الأباجية",
        "lat": 30.0277043,
        "lng": 31.234817
      },
      {
        "name": "القلعة",
        "lat": 30.0277043,
        "lng": 31.234817
      },
      {
        "name": "ابو الريش",
        "lat": 30.0277043,
        "lng": 31.234817
      },
      {
        "name": "شارع الشيخ على يوسف",
        "lat": 30.0320519,
        "lng": 31.2345235
      },
      {
        "name": "القصر العينى",
        "lat": 30.0421311,
        "lng": 31.2358169
      },
      {
        "name": "كوبرى الجامعة",
        "lat": 30.0306506,
        "lng": 31.3697801
      },
      {
        "name": "جامعة القاهرة",
        "lat": 30.0191701,
        "lng": 31.5037433
      },
      {
        "name": "ميدان الجيزة",
        "lat": 30.0191701,
        "lng": 31.5037433
      }
    ]
  },
  {
    "routeNumber": "12",
    "type": "ميني باص",
    "stops": [
      {
        "name": "المسلة الجديدة",
        "lat": 30.1213759,
        "lng": 31.3139785
      },
      {
        "name": "المطرية",
        "lat": 30.1213759,
        "lng": 31.3139785
      },
      {
        "name": "الحلمية",
        "lat": 30.1125623,
        "lng": 31.3342801
      },
      {
        "name": "التجنيد",
        "lat": 30.1063333,
        "lng": 31.3241048
      },
      {
        "name": "المحكمة",
        "lat": 29.9687916,
        "lng": 31.2396683
      },
      {
        "name": "سفير",
        "lat": 29.9942486,
        "lng": 31.3187478
      },
      {
        "name": "الإسماعيلية",
        "lat": 30.0470897,
        "lng": 31.2346944
      },
      {
        "name": "صلاح الدين",
        "lat": 30.0292997,
        "lng": 31.2615831
      },
      {
        "name": "الكوربة",
        "lat": 30.0897941,
        "lng": 31.3224832
      },
      {
        "name": "الميرغنى",
        "lat": 30.0815072,
        "lng": 31.3317412
      },
      {
        "name": "كلية البنات",
        "lat": 30.0815942,
        "lng": 31.3290937
      },
      {
        "name": "شارع الطيران",
        "lat": 30.0744229,
        "lng": 31.3232451
      },
      {
        "name": "الحى السابع",
        "lat": 30.065504933333333,
        "lng": 31.345484333333335
      },
      {
        "name": "الحى العاشر",
        "lat": 30.056586966666664,
        "lng": 31.367723566666665
      },
      {
        "name": "زهراء مدينة نصر",
        "lat": 30.047669,
        "lng": 31.3899628
      },
      {
        "name": "التجمع الاول",
        "lat": 30.0632671,
        "lng": 31.4544799
      }
    ]
  },
  {
    "routeNumber": "12",
    "type": "ميني باص",
    "stops": [
      {
        "name": "مسطرد",
        "lat": 30.1382602,
        "lng": 31.2962809
      },
      {
        "name": "المطرية",
        "lat": 30.1213759,
        "lng": 31.3139785
      },
      {
        "name": "الحلمية",
        "lat": 30.1125623,
        "lng": 31.3342801
      },
      {
        "name": "التجنيد",
        "lat": 30.1063333,
        "lng": 31.3241048
      },
      {
        "name": "المحكمة",
        "lat": 29.9687916,
        "lng": 31.2396683
      },
      {
        "name": "سفير",
        "lat": 29.9942486,
        "lng": 31.3187478
      },
      {
        "name": "الإسماعيلية",
        "lat": 30.0470897,
        "lng": 31.2346944
      },
      {
        "name": "صلاح الدين",
        "lat": 30.0292997,
        "lng": 31.2615831
      },
      {
        "name": "الكوربة",
        "lat": 30.0897941,
        "lng": 31.3224832
      },
      {
        "name": "الميرغنى",
        "lat": 30.0815072,
        "lng": 31.3317412
      },
      {
        "name": "كلية البنات",
        "lat": 30.0815942,
        "lng": 31.3290937
      },
      {
        "name": "شارع الطيران",
        "lat": 30.0744229,
        "lng": 31.3232451
      },
      {
        "name": "الحى السابع",
        "lat": 30.065504933333333,
        "lng": 31.345484333333335
      },
      {
        "name": "الحى العاشر",
        "lat": 30.056586966666664,
        "lng": 31.367723566666665
      },
      {
        "name": "زهراء مدينة نصر",
        "lat": 30.047669,
        "lng": 31.3899628
      },
      {
        "name": "التجمع الاول",
        "lat": 30.0632671,
        "lng": 31.4544799
      }
    ]
  },
  {
    "routeNumber": "12",
    "type": "ميني باص",
    "stops": [
      {
        "name": "الجيزة",
        "lat": 30.0158095,
        "lng": 31.333456
      },
      {
        "name": "شارع فيصل",
        "lat": 30.1339124,
        "lng": 31.3624015
      },
      {
        "name": "الرماية",
        "lat": 29.8991414,
        "lng": 31.6803071
      },
      {
        "name": "هضبة الهرم",
        "lat": 29.8991414,
        "lng": 31.6803071
      }
    ]
  },
  {
    "routeNumber": "13",
    "type": "ميني باص",
    "stops": [
      {
        "name": "مساكن عين شمس",
        "lat": 30.134921,
        "lng": 31.3504248
      },
      {
        "name": "الالف مسكن",
        "lat": 30.1232163,
        "lng": 31.34812385
      },
      {
        "name": "ميدان الحجاز",
        "lat": 30.1115116,
        "lng": 31.3458229
      },
      {
        "name": "شارع النزهة",
        "lat": 30.116853,
        "lng": 31.6135077
      },
      {
        "name": "ميدان الساعة",
        "lat": 30.0691244,
        "lng": 31.3383318
      },
      {
        "name": "عباس العقاد",
        "lat": 30.0382326,
        "lng": 31.5507996
      },
      {
        "name": "السفارات",
        "lat": 30.0381089,
        "lng": 31.3390268
      },
      {
        "name": "الحى السابع",
        "lat": 30.0381089,
        "lng": 31.3390268
      }
    ]
  },
  {
    "routeNumber": "13",
    "type": "ميني باص",
    "stops": [
      {
        "name": "مساكن عين شمس",
        "lat": 30.134921,
        "lng": 31.3504248
      },
      {
        "name": "الالف مسكن",
        "lat": 30.1232163,
        "lng": 31.34812385
      },
      {
        "name": "ميدان الحجاز",
        "lat": 30.1115116,
        "lng": 31.3458229
      },
      {
        "name": "شارع النزهة",
        "lat": 30.116853,
        "lng": 31.6135077
      },
      {
        "name": "ميدان الساعة",
        "lat": 30.0691244,
        "lng": 31.3383318
      },
      {
        "name": "عباس العقاد",
        "lat": 30.0382326,
        "lng": 31.5507996
      },
      {
        "name": "السفارات",
        "lat": 30.0381089,
        "lng": 31.3390268
      },
      {
        "name": "الحى السابع",
        "lat": 30.02739415,
        "lng": 31.31165695
      },
      {
        "name": "المقطم",
        "lat": 30.0166794,
        "lng": 31.2842871
      },
      {
        "name": "الاسمرات",
        "lat": 29.9944663,
        "lng": 31.341184
      }
    ]
  },
  {
    "routeNumber": "Q13",
    "type": "ميني باص",
    "stops": [
      {
        "name": "عرب الطوايلة",
        "lat": 30.0920694,
        "lng": 31.324705
      },
      {
        "name": "المسلة",
        "lat": 30.0920694,
        "lng": 31.324705
      },
      {
        "name": "المطرية",
        "lat": 30.1213759,
        "lng": 31.3139785
      },
      {
        "name": "الحلمية",
        "lat": 30.1125623,
        "lng": 31.3342801
      },
      {
        "name": "التجنيد",
        "lat": 30.1063333,
        "lng": 31.3241048
      },
      {
        "name": "المحكمة",
        "lat": 29.9687916,
        "lng": 31.2396683
      },
      {
        "name": "سفير",
        "lat": 29.9942486,
        "lng": 31.3187478
      },
      {
        "name": "الإسماعيلية",
        "lat": 30.0470897,
        "lng": 31.2346944
      },
      {
        "name": "صلاح الدين",
        "lat": 30.0292997,
        "lng": 31.2615831
      },
      {
        "name": "الكوربة",
        "lat": 30.0897941,
        "lng": 31.3224832
      },
      {
        "name": "الميرغنى",
        "lat": 30.0815072,
        "lng": 31.3317412
      },
      {
        "name": "كلية البنات",
        "lat": 30.0815942,
        "lng": 31.3290937
      },
      {
        "name": "رابعة",
        "lat": 30.0710223,
        "lng": 31.3377303
      },
      {
        "name": "عباس العقاد",
        "lat": 30.0382326,
        "lng": 31.5507996
      },
      {
        "name": "إنبى",
        "lat": 30.0443617,
        "lng": 31.3413644
      },
      {
        "name": "الحى العاشر",
        "lat": 30.046015349999998,
        "lng": 31.365663599999998
      },
      {
        "name": "زهراء مدينة نصر",
        "lat": 30.047669,
        "lng": 31.3899628
      },
      {
        "name": "التجمع الاول",
        "lat": 30.0632671,
        "lng": 31.4544799
      }
    ]
  },
  {
    "routeNumber": "14",
    "type": "ميني باص",
    "stops": [
      {
        "name": "العمرانية",
        "lat": 30.0155961,
        "lng": 31.7459069
      },
      {
        "name": "الجيزة",
        "lat": 30.0158095,
        "lng": 31.333456
      },
      {
        "name": "قسم الدقى",
        "lat": 30.0188283,
        "lng": 31.2090397
      },
      {
        "name": "العجوزة",
        "lat": 30.0479275,
        "lng": 31.2126338
      },
      {
        "name": "الكيت كات",
        "lat": 30.0508341,
        "lng": 31.2374687
      },
      {
        "name": "الوراق",
        "lat": 30.0537407,
        "lng": 31.2623036
      }
    ]
  },
  {
    "routeNumber": "14",
    "type": "ميني باص",
    "stops": [
      {
        "name": "الخصوص",
        "lat": 30.0609765,
        "lng": 31.2340348
      },
      {
        "name": "مسطرد",
        "lat": 30.1382602,
        "lng": 31.2962809
      },
      {
        "name": "الكابلات",
        "lat": 29.881456,
        "lng": 31.3055496
      },
      {
        "name": "المطرية",
        "lat": 30.1213759,
        "lng": 31.3139785
      },
      {
        "name": "الحلمية",
        "lat": 30.1125623,
        "lng": 31.3342801
      },
      {
        "name": "التجنيد",
        "lat": 30.1063333,
        "lng": 31.3241048
      },
      {
        "name": "المحكمة",
        "lat": 29.9687916,
        "lng": 31.2396683
      },
      {
        "name": "روكسى",
        "lat": 30.0934241,
        "lng": 31.3156978
      },
      {
        "name": "الميرغنى",
        "lat": 30.0815072,
        "lng": 31.3317412
      },
      {
        "name": "كلية البنات",
        "lat": 30.0815942,
        "lng": 31.3290937
      },
      {
        "name": "شارع الطيران",
        "lat": 30.0744229,
        "lng": 31.3232451
      },
      {
        "name": "نورى خطاب",
        "lat": 30.0529812,
        "lng": 31.3264637
      },
      {
        "name": "مصطفى النحاس",
        "lat": 30.1529642,
        "lng": 31.6185573
      },
      {
        "name": "التبة",
        "lat": 30.0608498,
        "lng": 31.3779325
      },
      {
        "name": "الحى العاشر",
        "lat": 30.0542594,
        "lng": 31.38394765
      },
      {
        "name": "زهراء مدينة نصر",
        "lat": 30.047669,
        "lng": 31.3899628
      },
      {
        "name": "التجمع الاول",
        "lat": 30.0632671,
        "lng": 31.4544799
      }
    ]
  },
  {
    "routeNumber": "15",
    "type": "اتوبيس",
    "stops": [
      {
        "name": "صفط اللبن",
        "lat": 30.0191701,
        "lng": 31.5037433
      },
      {
        "name": "بين السرايات",
        "lat": 30.0191701,
        "lng": 31.5037433
      },
      {
        "name": "زنين",
        "lat": 30.0191701,
        "lng": 31.5037433
      },
      {
        "name": "جامعة القاهرة",
        "lat": 30.0191701,
        "lng": 31.5037433
      },
      {
        "name": "كوبرى الجامعة",
        "lat": 30.02453045,
        "lng": 31.36584665
      },
      {
        "name": "قصر العينى",
        "lat": 30.0298908,
        "lng": 31.22795
      },
      {
        "name": "عبد المنعم رياض 1",
        "lat": 29.9754131,
        "lng": 31.2511253
      }
    ]
  },
  {
    "routeNumber": "15",
    "type": "ميني باص",
    "stops": [
      {
        "name": "مساكن اسكو",
        "lat": 30.1399447,
        "lng": 31.3526092
      },
      {
        "name": "الشارع الجديد",
        "lat": 30.1399447,
        "lng": 31.3526092
      },
      {
        "name": "عرابى",
        "lat": 30.0573315,
        "lng": 31.2425378
      },
      {
        "name": "شارع شبرا",
        "lat": 30.0847105,
        "lng": 31.2453057
      },
      {
        "name": "رمسيس",
        "lat": 30.0618579,
        "lng": 31.2460417
      },
      {
        "name": "الإسعاف",
        "lat": 30.0535483,
        "lng": 31.2388137
      },
      {
        "name": "التحرير",
        "lat": 30.0434377,
        "lng": 31.398951
      },
      {
        "name": "الزمالك",
        "lat": 30.0559388,
        "lng": 31.2218903
      },
      {
        "name": "سفنكس",
        "lat": 30.1091976,
        "lng": 30.8815747
      },
      {
        "name": "جامعة الدول",
        "lat": 30.0447299,
        "lng": 31.2331383
      },
      {
        "name": "بولاق الدكرور",
        "lat": 30.0447299,
        "lng": 31.2331383
      }
    ]
  },
  {
    "routeNumber": "16",
    "type": "اتوبيس",
    "stops": [
      {
        "name": "مساكن الوحدة",
        "lat": 30.0618579,
        "lng": 31.2460417
      },
      {
        "name": "مظلات",
        "lat": 30.0618579,
        "lng": 31.2460417
      },
      {
        "name": "ش شبرا",
        "lat": 30.0618579,
        "lng": 31.2460417
      },
      {
        "name": "رمسيس",
        "lat": 30.0618579,
        "lng": 31.2460417
      },
      {
        "name": "تحرير",
        "lat": 30.0443934,
        "lng": 31.2357457
      },
      {
        "name": "عجوزة",
        "lat": 30.0443934,
        "lng": 31.2357457
      },
      {
        "name": "كيت كات",
        "lat": 30.0443934,
        "lng": 31.2357457
      },
      {
        "name": "ش السودان",
        "lat": 30.0443934,
        "lng": 31.2357457
      },
      {
        "name": "ميدان لبنان",
        "lat": 30.0443934,
        "lng": 31.2357457
      }
    ]
  },
  {
    "routeNumber": "16",
    "type": "ميني باص",
    "stops": [
      {
        "name": "مساكن اسكو",
        "lat": 29.960832,
        "lng": 31.6833929
      },
      {
        "name": "الدائرى",
        "lat": 29.960832,
        "lng": 31.6833929
      },
      {
        "name": "الوراق",
        "lat": 30.0537407,
        "lng": 31.2623036
      },
      {
        "name": "معهد البلهارسيا",
        "lat": 30.05861995,
        "lng": 31.3522899
      },
      {
        "name": "شارع الوحدة",
        "lat": 30.0634992,
        "lng": 31.4422762
      },
      {
        "name": "الحميات",
        "lat": 30.058308633333333,
        "lng": 31.36572873333333
      },
      {
        "name": "الكيت كات",
        "lat": 30.053118066666666,
        "lng": 31.289181266666667
      },
      {
        "name": "العجوزة",
        "lat": 30.0479275,
        "lng": 31.2126338
      },
      {
        "name": "الدقى",
        "lat": 30.0318685,
        "lng": 31.273044900000002
      },
      {
        "name": "الجيزة",
        "lat": 30.0158095,
        "lng": 31.333456
      },
      {
        "name": "المنيب",
        "lat": 29.9892105,
        "lng": 31.2251428
      }
    ]
  },
  {
    "routeNumber": "17 ط",
    "type": "اتوبيس",
    "stops": [
      {
        "name": "البساتين",
        "lat": 30.0002849,
        "lng": 31.2608071
      },
      {
        "name": "السيدة عائشة",
        "lat": 30.0642024,
        "lng": 31.3851793
      },
      {
        "name": "السيدة زينب",
        "lat": 30.0273241,
        "lng": 31.2404117
      },
      {
        "name": "قصر العينى",
        "lat": 30.0298908,
        "lng": 31.22795
      },
      {
        "name": "جامعة القاهرة",
        "lat": 30.0191701,
        "lng": 31.5037433
      },
      {
        "name": "ميدان الجيزة",
        "lat": 30.004190299999998,
        "lng": 31.36444305
      },
      {
        "name": "المنيب",
        "lat": 29.9892105,
        "lng": 31.2251428
      }
    ]
  },
  {
    "routeNumber": "17",
    "type": "ميني باص",
    "stops": [
      {
        "name": "مؤسسة الزكاة",
        "lat": 30.1300531,
        "lng": 31.3662021
      },
      {
        "name": "الاربعين",
        "lat": 30.1300531,
        "lng": 31.3662021
      },
      {
        "name": "الجراج",
        "lat": 29.9854858,
        "lng": 31.2342443
      },
      {
        "name": "الالف مسكن",
        "lat": 30.0484987,
        "lng": 31.2900336
      },
      {
        "name": "ميدان الحجاز",
        "lat": 30.1115116,
        "lng": 31.3458229
      },
      {
        "name": "المحكمة",
        "lat": 29.9687916,
        "lng": 31.2396683
      },
      {
        "name": "روكسى",
        "lat": 30.0934241,
        "lng": 31.3156978
      },
      {
        "name": "العباسية",
        "lat": 30.066667,
        "lng": 31.283333
      },
      {
        "name": "غمرة",
        "lat": 30.068964,
        "lng": 31.2646738
      },
      {
        "name": "رمسيس",
        "lat": 30.0618579,
        "lng": 31.2460417
      },
      {
        "name": "العتبة",
        "lat": 30.0509915,
        "lng": 31.2499736
      },
      {
        "name": "الموسكى",
        "lat": 30.0503528,
        "lng": 31.253695
      },
      {
        "name": "باب الخلق",
        "lat": 30.0438945,
        "lng": 31.2526973
      },
      {
        "name": "السيدة زينب",
        "lat": 30.0273241,
        "lng": 31.2404117
      },
      {
        "name": "زينهم",
        "lat": 30.0244905,
        "lng": 31.2386961
      },
      {
        "name": "جامع عمرو",
        "lat": 30.011425,
        "lng": 31.2311755
      }
    ]
  },
  {
    "routeNumber": "17",
    "type": "ميني باص",
    "stops": [
      {
        "name": "ام بيومى",
        "lat": 30.0573315,
        "lng": 31.2425378
      },
      {
        "name": "عرابى",
        "lat": 30.0573315,
        "lng": 31.2425378
      },
      {
        "name": "ش شبرا",
        "lat": 30.0689481,
        "lng": 31.2439444
      },
      {
        "name": "روض الفرج",
        "lat": 30.0805647,
        "lng": 31.245351
      },
      {
        "name": "الكورنيش",
        "lat": 29.9933796,
        "lng": 31.2969344
      },
      {
        "name": "التحرير",
        "lat": 30.0434377,
        "lng": 31.398951
      },
      {
        "name": "القصر العينى",
        "lat": 30.0421311,
        "lng": 31.2358169
      },
      {
        "name": "الجيزة",
        "lat": 30.0158095,
        "lng": 31.333456
      },
      {
        "name": "العمرانية",
        "lat": 30.0155961,
        "lng": 31.7459069
      }
    ]
  },
  {
    "routeNumber": "18",
    "type": "ميني باص",
    "stops": [
      {
        "name": "مساكن اسكو",
        "lat": 30.1399447,
        "lng": 31.3526092
      },
      {
        "name": "بهتيم",
        "lat": 30.1399447,
        "lng": 31.3526092
      },
      {
        "name": "الشارع الجديد",
        "lat": 30.1399447,
        "lng": 31.3526092
      },
      {
        "name": "مسطرد",
        "lat": 30.1382602,
        "lng": 31.2962809
      },
      {
        "name": "المطرية",
        "lat": 30.1213759,
        "lng": 31.3139785
      },
      {
        "name": "الاميرية",
        "lat": 30.1000001,
        "lng": 31.283333
      },
      {
        "name": "سرايا القبة",
        "lat": 30.096712099999998,
        "lng": 31.299515399999997
      },
      {
        "name": "روكسى",
        "lat": 30.0934241,
        "lng": 31.3156978
      },
      {
        "name": "شارع بغداد",
        "lat": 30.0897823,
        "lng": 31.3227161
      },
      {
        "name": "نفق الثورة",
        "lat": 30.088766,
        "lng": 31.3305217
      },
      {
        "name": "كلية البنات",
        "lat": 30.0815942,
        "lng": 31.3290937
      },
      {
        "name": "خطر التونى",
        "lat": 29.961912400000003,
        "lng": 31.33786375
      },
      {
        "name": "الطيران",
        "lat": 29.8422306,
        "lng": 31.3466338
      },
      {
        "name": "رابعة",
        "lat": 30.0710223,
        "lng": 31.3377303
      },
      {
        "name": "اول عباس",
        "lat": 30.06504995,
        "lng": 31.3418466
      },
      {
        "name": "اول مكرم",
        "lat": 30.0590776,
        "lng": 31.3459629
      },
      {
        "name": "احمد فخرى",
        "lat": 30.0652213,
        "lng": 31.3493028
      },
      {
        "name": "النادى الأهلى",
        "lat": 30.0712332,
        "lng": 31.3577033
      },
      {
        "name": "مساكن الشروق",
        "lat": 30.0676584,
        "lng": 31.3669958
      }
    ]
  },
  {
    "routeNumber": "20",
    "type": "اتوبيس",
    "stops": [
      {
        "name": "إمبابة",
        "lat": 30.0479275,
        "lng": 31.2126338
      },
      {
        "name": "الكيت كات",
        "lat": 30.0479275,
        "lng": 31.2126338
      },
      {
        "name": "العجوزة",
        "lat": 30.0479275,
        "lng": 31.2126338
      },
      {
        "name": "كوبرى الجامعة",
        "lat": 30.0450293,
        "lng": 31.224225349999998
      },
      {
        "name": "القصر العيني",
        "lat": 30.0421311,
        "lng": 31.2358169
      },
      {
        "name": "فم الخليج",
        "lat": 30.0222014,
        "lng": 31.2303627
      },
      {
        "name": "مجرى العيون",
        "lat": 30.0204007,
        "lng": 31.2436733
      },
      {
        "name": "السيدة عائشة",
        "lat": 30.0642024,
        "lng": 31.3851793
      },
      {
        "name": "الاباجية",
        "lat": 30.0642024,
        "lng": 31.3851793
      }
    ]
  },
  {
    "routeNumber": "22",
    "type": "ميني باص",
    "stops": [
      {
        "name": "احمد حلمى",
        "lat": 30.0681787,
        "lng": 31.2521651
      },
      {
        "name": "رمسيس",
        "lat": 30.0618579,
        "lng": 31.2460417
      },
      {
        "name": "العتبة",
        "lat": 30.0509915,
        "lng": 31.2499736
      },
      {
        "name": "الموسكى",
        "lat": 30.0503528,
        "lng": 31.253695
      },
      {
        "name": "باب الخلق",
        "lat": 30.0438945,
        "lng": 31.2526973
      },
      {
        "name": "السيدة زينب",
        "lat": 30.0273241,
        "lng": 31.2404117
      },
      {
        "name": "القصر العيني",
        "lat": 30.0421311,
        "lng": 31.2358169
      },
      {
        "name": "جامعة القاهرة",
        "lat": 30.0191701,
        "lng": 31.5037433
      },
      {
        "name": "الجيزة",
        "lat": 30.0158095,
        "lng": 31.333456
      },
      {
        "name": "المنيب",
        "lat": 29.9892105,
        "lng": 31.2251428
      }
    ]
  },
  {
    "routeNumber": "23",
    "type": "ميني باص",
    "stops": [
      {
        "name": "كفر طهرمس",
        "lat": 30.1506795,
        "lng": 31.3825455
      },
      {
        "name": "فيصل",
        "lat": 30.1506795,
        "lng": 31.3825455
      },
      {
        "name": "الجيزة",
        "lat": 30.0158095,
        "lng": 31.333456
      },
      {
        "name": "القصر العيني",
        "lat": 30.0421311,
        "lng": 31.2358169
      },
      {
        "name": "السيدة زينب",
        "lat": 30.0273241,
        "lng": 31.2404117
      },
      {
        "name": "باب الخلق",
        "lat": 30.0438945,
        "lng": 31.2526973
      },
      {
        "name": "الموسكى",
        "lat": 30.0503528,
        "lng": 31.253695
      },
      {
        "name": "باب الشعرية",
        "lat": 30.0537108,
        "lng": 31.255875
      },
      {
        "name": "ميدان الجيش",
        "lat": 30.0619512,
        "lng": 31.26817
      },
      {
        "name": "احمد سعيد",
        "lat": 30.0710301,
        "lng": 31.3694383
      },
      {
        "name": "مصر و السودان",
        "lat": 30.0789573,
        "lng": 31.2780478
      },
      {
        "name": "حدائق القبة",
        "lat": 30.0789573,
        "lng": 31.2780478
      }
    ]
  },
  {
    "routeNumber": "24",
    "type": "اتوبيس",
    "stops": [
      {
        "name": "شرق شبرا الخيمة",
        "lat": 30.0847105,
        "lng": 31.2453057
      },
      {
        "name": "كوبرى احمد عرابى",
        "lat": 30.0847105,
        "lng": 31.2453057
      },
      {
        "name": "مظلات",
        "lat": 30.0847105,
        "lng": 31.2453057
      },
      {
        "name": "شارع شبرا",
        "lat": 30.0847105,
        "lng": 31.2453057
      },
      {
        "name": "نفق التعاون",
        "lat": 30.07336775,
        "lng": 31.2432105
      },
      {
        "name": "القللى",
        "lat": 30.062025,
        "lng": 31.2411153
      },
      {
        "name": "عتبة الجنينة",
        "lat": 30.062025,
        "lng": 31.2411153
      }
    ]
  },
  {
    "routeNumber": "24 ط",
    "type": "اتوبيس",
    "stops": [
      {
        "name": "الحى السابع",
        "lat": 30.0113183,
        "lng": 31.2647255
      },
      {
        "name": "الخليفة",
        "lat": 30.0113183,
        "lng": 31.2647255
      },
      {
        "name": "القاهر",
        "lat": 30.0505312,
        "lng": 31.3106182
      },
      {
        "name": "جامعة الأزهر",
        "lat": 30.0537765,
        "lng": 31.3247217
      },
      {
        "name": "طريق النصر",
        "lat": 29.7643918,
        "lng": 31.3316556
      },
      {
        "name": "ميدان الفردوس",
        "lat": 30.0535302,
        "lng": 31.4990546
      },
      {
        "name": "ميدان البعوث",
        "lat": 30.053201950000002,
        "lng": 31.38697705
      },
      {
        "name": "الدراسة",
        "lat": 30.0528737,
        "lng": 31.2748995
      }
    ]
  },
  {
    "routeNumber": "24 /",
    "type": "اتوبيس",
    "stops": [
      {
        "name": "إبراهيم بك",
        "lat": 30.0377629,
        "lng": 31.2527016
      },
      {
        "name": "1",
        "lat": 30.082287,
        "lng": 31.2662852
      },
      {
        "name": "كوبرى أحمد عرابى",
        "lat": 30.09195495,
        "lng": 31.2558957
      },
      {
        "name": "المظلات",
        "lat": 30.1016229,
        "lng": 31.2455062
      },
      {
        "name": "شارع شبرا",
        "lat": 30.0847105,
        "lng": 31.2453057
      },
      {
        "name": "نفق التعاون",
        "lat": 30.07336775,
        "lng": 31.2432105
      },
      {
        "name": "القللى",
        "lat": 30.062025,
        "lng": 31.2411153
      },
      {
        "name": "عبد المنعم رياض 2",
        "lat": 29.8567542,
        "lng": 31.3142216
      }
    ]
  },
  {
    "routeNumber": "24/",
    "type": "اتوبيس",
    "stops": [
      {
        "name": "ابراهيم بك",
        "lat": 30.0377629,
        "lng": 31.2527016
      },
      {
        "name": "مظلات",
        "lat": 30.058131250000002,
        "lng": 31.24800325
      },
      {
        "name": "شبرا",
        "lat": 30.0784996,
        "lng": 31.2433049
      },
      {
        "name": "رمسيس",
        "lat": 30.0618579,
        "lng": 31.2460417
      },
      {
        "name": "تحرير",
        "lat": 30.0443934,
        "lng": 31.2357457
      }
    ]
  },
  {
    "routeNumber": "24 ج",
    "type": "اتوبيس",
    "stops": [
      {
        "name": "الحى السابع",
        "lat": 30.0338675,
        "lng": 31.5650818
      },
      {
        "name": "الحى السادس",
        "lat": 30.0338675,
        "lng": 31.5650818
      },
      {
        "name": "نادى السكة",
        "lat": 30.0561053,
        "lng": 31.3041965
      },
      {
        "name": "مزلقان الدويقة",
        "lat": 30.055028099999998,
        "lng": 31.294430833333333
      },
      {
        "name": "البعثوث",
        "lat": 30.0539509,
        "lng": 31.284665166666667
      },
      {
        "name": "الدراسة",
        "lat": 30.0528737,
        "lng": 31.2748995
      }
    ]
  },
  {
    "routeNumber": "25",
    "type": "ميني باص",
    "stops": [
      {
        "name": "عبد المنعم رياض",
        "lat": 30.048721,
        "lng": 31.2341946
      },
      {
        "name": "الاسعاف",
        "lat": 30.0535483,
        "lng": 31.2388137
      },
      {
        "name": "رمسيس",
        "lat": 30.0618579,
        "lng": 31.2460417
      },
      {
        "name": "غمرة",
        "lat": 30.068964,
        "lng": 31.2646738
      },
      {
        "name": "العباسية",
        "lat": 30.066667,
        "lng": 31.283333
      },
      {
        "name": "نادى السكة",
        "lat": 30.0561053,
        "lng": 31.3041965
      },
      {
        "name": "جامعة الأزهر",
        "lat": 30.0537765,
        "lng": 31.3247217
      },
      {
        "name": "رابعة",
        "lat": 30.0710223,
        "lng": 31.3377303
      },
      {
        "name": "اول عباس",
        "lat": 30.06504995,
        "lng": 31.3418466
      },
      {
        "name": "اول مكرم",
        "lat": 30.0590776,
        "lng": 31.3459629
      },
      {
        "name": "النادى الأهلى",
        "lat": 30.0712332,
        "lng": 31.3577033
      },
      {
        "name": "مساكن الشروق",
        "lat": 30.0676584,
        "lng": 31.3669958
      }
    ]
  },
  {
    "routeNumber": "26 ط",
    "type": "اتوبيس",
    "stops": [
      {
        "name": "عباسية",
        "lat": 30.147184,
        "lng": 31.3841685
      },
      {
        "name": "شارع الجيش",
        "lat": 30.147184,
        "lng": 31.3841685
      },
      {
        "name": "ميدان باب الشعرية",
        "lat": 30.0502661,
        "lng": 31.250164
      },
      {
        "name": "شارع قصر العينى",
        "lat": 30.0315175,
        "lng": 31.2326819
      },
      {
        "name": "فم الخليج",
        "lat": 30.0222014,
        "lng": 31.2303627
      },
      {
        "name": "جامع عمرو",
        "lat": 30.011425,
        "lng": 31.2311755
      }
    ]
  },
  {
    "routeNumber": "26",
    "type": "ميني باص",
    "stops": [
      {
        "name": "بيجام",
        "lat": 30.0573315,
        "lng": 31.2425378
      },
      {
        "name": "عرابى",
        "lat": 30.0573315,
        "lng": 31.2425378
      },
      {
        "name": "مسطرد",
        "lat": 30.1382602,
        "lng": 31.2962809
      },
      {
        "name": "مطرية",
        "lat": 30.126302850000002,
        "lng": 31.30509045
      },
      {
        "name": "حلمية",
        "lat": 30.1143455,
        "lng": 31.3139
      },
      {
        "name": "تجنيد",
        "lat": 30.050668899999998,
        "lng": 31.30931155
      },
      {
        "name": "محكمة",
        "lat": 29.9869923,
        "lng": 31.3047231
      },
      {
        "name": "سفير",
        "lat": 29.9942486,
        "lng": 31.3187478
      },
      {
        "name": "السبع عمارات",
        "lat": 29.7883102,
        "lng": 31.3112741
      },
      {
        "name": "اول عباس",
        "lat": 29.9236939,
        "lng": 31.328618499999997
      },
      {
        "name": "اول مكرم",
        "lat": 30.0590776,
        "lng": 31.3459629
      },
      {
        "name": "الخدمة الاجتماعية",
        "lat": 29.8665226,
        "lng": 31.3179539
      },
      {
        "name": "النادى الأهلى",
        "lat": 30.0712332,
        "lng": 31.3577033
      },
      {
        "name": "مساكن الشروق",
        "lat": 30.0676584,
        "lng": 31.3669958
      }
    ]
  },
  {
    "routeNumber": "27",
    "type": "ميني باص",
    "stops": [
      {
        "name": "ام بيومي",
        "lat": 30.0573315,
        "lng": 31.2425378
      },
      {
        "name": "عرابي",
        "lat": 30.0573315,
        "lng": 31.2425378
      },
      {
        "name": "شارع شبرا",
        "lat": 30.0847105,
        "lng": 31.2453057
      },
      {
        "name": "رمسيس",
        "lat": 30.0618579,
        "lng": 31.2460417
      },
      {
        "name": "الاسعاف",
        "lat": 30.0535483,
        "lng": 31.2388137
      },
      {
        "name": "التحرير",
        "lat": 30.0434377,
        "lng": 31.398951
      },
      {
        "name": "عابدين",
        "lat": 30.044988,
        "lng": 31.2488627
      },
      {
        "name": "باب الخلق",
        "lat": 30.0438945,
        "lng": 31.2526973
      },
      {
        "name": "السيدة زينب",
        "lat": 30.0273241,
        "lng": 31.2404117
      },
      {
        "name": "السيدة عائشة",
        "lat": 30.0642024,
        "lng": 31.3851793
      }
    ]
  },
  {
    "routeNumber": "28",
    "type": "اتوبيس",
    "stops": [
      {
        "name": "ام بيومى",
        "lat": 30.0573315,
        "lng": 31.2425378
      },
      {
        "name": "عرابى",
        "lat": 30.0573315,
        "lng": 31.2425378
      },
      {
        "name": "مظلات",
        "lat": 30.0588403,
        "lng": 31.243705766666668
      },
      {
        "name": "ش شبرا",
        "lat": 30.0603491,
        "lng": 31.244873733333332
      },
      {
        "name": "رمسيس",
        "lat": 30.0618579,
        "lng": 31.2460417
      },
      {
        "name": "اسعاف",
        "lat": 29.9818385,
        "lng": 31.2384605
      },
      {
        "name": "تحرير",
        "lat": 30.0443934,
        "lng": 31.2357457
      }
    ]
  },
  {
    "routeNumber": "28",
    "type": "ميني باص",
    "stops": [
      {
        "name": "بيجام",
        "lat": 30.0573315,
        "lng": 31.2425378
      },
      {
        "name": "عرابى",
        "lat": 30.0573315,
        "lng": 31.2425378
      },
      {
        "name": "المظلات",
        "lat": 30.1016229,
        "lng": 31.2455062
      },
      {
        "name": "الخلفاوى",
        "lat": 30.0977898,
        "lng": 31.2454368
      },
      {
        "name": "ابو وافية",
        "lat": 30.096698375000003,
        "lng": 31.26300205
      },
      {
        "name": "الزاوية الحمراء",
        "lat": 30.09560695,
        "lng": 31.2805673
      },
      {
        "name": "حدائق القبة",
        "lat": 30.094515525,
        "lng": 31.29813255
      },
      {
        "name": "روكسى",
        "lat": 30.0934241,
        "lng": 31.3156978
      },
      {
        "name": "الكوربة",
        "lat": 30.0897941,
        "lng": 31.3224832
      },
      {
        "name": "صلاح الدين",
        "lat": 30.0292997,
        "lng": 31.2615831
      },
      {
        "name": "الإسماعيلية",
        "lat": 30.0470897,
        "lng": 31.2346944
      },
      {
        "name": "سفير",
        "lat": 29.9942486,
        "lng": 31.3187478
      },
      {
        "name": "تريامف",
        "lat": 30.02658725,
        "lng": 31.32621705
      },
      {
        "name": "سانت فاطيما",
        "lat": 30.0589259,
        "lng": 31.3336863
      },
      {
        "name": "ميدان الحجاز",
        "lat": 30.1115116,
        "lng": 31.3458229
      },
      {
        "name": "الكلية الحربية",
        "lat": 30.1092459,
        "lng": 31.3594347
      },
      {
        "name": "مساكن شيراتون",
        "lat": 30.1075622,
        "lng": 31.4087057
      }
    ]
  },
  {
    "routeNumber": "29 ط",
    "type": "اتوبيس",
    "stops": [
      {
        "name": "التبين",
        "lat": 29.7877997,
        "lng": 31.2955944
      },
      {
        "name": "شارع كورنيش النيل",
        "lat": 29.902735200000002,
        "lng": 31.2634102
      },
      {
        "name": "الملك الصالح",
        "lat": 30.0176707,
        "lng": 31.231226
      },
      {
        "name": "ميدان الجيزة",
        "lat": 30.0184204,
        "lng": 31.36748465
      },
      {
        "name": "جامعة القاهرة",
        "lat": 30.0191701,
        "lng": 31.5037433
      },
      {
        "name": "بين السرايات",
        "lat": 30.0191701,
        "lng": 31.5037433
      },
      {
        "name": "زنين",
        "lat": 30.0191701,
        "lng": 31.5037433
      }
    ]
  },
  {
    "routeNumber": "29",
    "type": "ميني باص",
    "stops": [
      {
        "name": "المسلة الجديدة",
        "lat": 29.838414,
        "lng": 31.3030821
      },
      {
        "name": "الرشاح",
        "lat": 29.838414,
        "lng": 31.3030821
      },
      {
        "name": "الكابلات",
        "lat": 29.881456,
        "lng": 31.3055496
      },
      {
        "name": "المطرية",
        "lat": 30.1213759,
        "lng": 31.3139785
      },
      {
        "name": "حدائق القبة",
        "lat": 30.1001666,
        "lng": 31.29601315
      },
      {
        "name": "مصر و السودان",
        "lat": 30.0789573,
        "lng": 31.2780478
      },
      {
        "name": "احمد سعيد",
        "lat": 30.0710301,
        "lng": 31.3694383
      },
      {
        "name": "ميدان الجيش",
        "lat": 30.0619512,
        "lng": 31.26817
      },
      {
        "name": "الظاهر",
        "lat": 30.0620712,
        "lng": 31.2548915
      },
      {
        "name": "باب الشعرية",
        "lat": 30.0537108,
        "lng": 31.255875
      },
      {
        "name": "العتبة",
        "lat": 30.0509915,
        "lng": 31.2499736
      }
    ]
  },
  {
    "routeNumber": "29",
    "type": "ميني باص",
    "stops": [
      {
        "name": "المسلة",
        "lat": 30.0920694,
        "lng": 31.324705
      },
      {
        "name": "الرشاح",
        "lat": 29.838414,
        "lng": 31.3030821
      },
      {
        "name": "الكابلات",
        "lat": 29.881456,
        "lng": 31.3055496
      },
      {
        "name": "المطرية",
        "lat": 30.1213759,
        "lng": 31.3139785
      },
      {
        "name": "حدائق القبة",
        "lat": 30.1001666,
        "lng": 31.29601315
      },
      {
        "name": "مصر و السودان",
        "lat": 30.0789573,
        "lng": 31.2780478
      },
      {
        "name": "احمد سعيد",
        "lat": 30.0710301,
        "lng": 31.3694383
      },
      {
        "name": "ميدان الجيش",
        "lat": 30.0619512,
        "lng": 31.26817
      },
      {
        "name": "الظاهر",
        "lat": 30.0620712,
        "lng": 31.2548915
      },
      {
        "name": "باب الشعرية",
        "lat": 30.0537108,
        "lng": 31.255875
      },
      {
        "name": "العتبة",
        "lat": 30.0509915,
        "lng": 31.2499736
      }
    ]
  },
  {
    "routeNumber": "30",
    "type": "اتوبيس",
    "stops": [
      {
        "name": "كهرباء الأهرام",
        "lat": 29.8991414,
        "lng": 31.6803071
      },
      {
        "name": "ميدان الرماية",
        "lat": 29.8991414,
        "lng": 31.6803071
      },
      {
        "name": "شارع الهرم",
        "lat": 29.95915575,
        "lng": 31.592025200000002
      },
      {
        "name": "جامعة القاهرة",
        "lat": 30.0191701,
        "lng": 31.5037433
      },
      {
        "name": "الدقى",
        "lat": 30.0341332,
        "lng": 31.364221649999998
      },
      {
        "name": "كوبرى 6 أكتوبر",
        "lat": 30.0490963,
        "lng": 31.2247
      },
      {
        "name": "احمد حلمى",
        "lat": 30.0681787,
        "lng": 31.2521651
      }
    ]
  },
  {
    "routeNumber": "30 ط",
    "type": "اتوبيس",
    "stops": [
      {
        "name": "النزهة الجديدة",
        "lat": 30.1219136,
        "lng": 31.3721061
      },
      {
        "name": "جامعة عين شمس",
        "lat": 30.0754657,
        "lng": 31.2904114
      },
      {
        "name": "العباسية",
        "lat": 30.066667,
        "lng": 31.283333
      },
      {
        "name": "رمسيس",
        "lat": 30.0618579,
        "lng": 31.2460417
      },
      {
        "name": "تحرير",
        "lat": 30.0443934,
        "lng": 31.2357457
      },
      {
        "name": "جامعة القاهرة",
        "lat": 30.0191701,
        "lng": 31.5037433
      },
      {
        "name": "زنين",
        "lat": 30.0191701,
        "lng": 31.5037433
      }
    ]
  },
  {
    "routeNumber": "30",
    "type": "ميني باص",
    "stops": [
      {
        "name": "زهراء عين شمس",
        "lat": 30.1129263,
        "lng": 31.3221991
      },
      {
        "name": "الحلمية",
        "lat": 30.1125623,
        "lng": 31.3342801
      },
      {
        "name": "سرايا القبة",
        "lat": 30.097931600000003,
        "lng": 31.317169149999998
      },
      {
        "name": "كوبرى القبة",
        "lat": 30.0833009,
        "lng": 31.3000582
      },
      {
        "name": "العباسية",
        "lat": 30.066667,
        "lng": 31.283333
      },
      {
        "name": "عبده باشا",
        "lat": 30.0653633,
        "lng": 31.2764414
      },
      {
        "name": "ميدان الجيش",
        "lat": 30.0619512,
        "lng": 31.26817
      },
      {
        "name": "باب الشعرية",
        "lat": 30.0537108,
        "lng": 31.255875
      },
      {
        "name": "الموسكى",
        "lat": 30.0503528,
        "lng": 31.253695
      },
      {
        "name": "باب الخلق",
        "lat": 30.0438945,
        "lng": 31.2526973
      },
      {
        "name": "السيدة زينب",
        "lat": 30.0273241,
        "lng": 31.2404117
      },
      {
        "name": "القلعة",
        "lat": 30.0273241,
        "lng": 31.2404117
      }
    ]
  },
  {
    "routeNumber": "30",
    "type": "ميني باص",
    "stops": [
      {
        "name": "زهراء عين شمس",
        "lat": 30.1129263,
        "lng": 31.3221991
      },
      {
        "name": "الحلمية",
        "lat": 30.1125623,
        "lng": 31.3342801
      },
      {
        "name": "سرايا القبة",
        "lat": 30.097931600000003,
        "lng": 31.317169149999998
      },
      {
        "name": "كوبرى القبة",
        "lat": 30.0833009,
        "lng": 31.3000582
      },
      {
        "name": "العباسية",
        "lat": 30.066667,
        "lng": 31.283333
      },
      {
        "name": "عبده باشا",
        "lat": 30.0653633,
        "lng": 31.2764414
      },
      {
        "name": "ميدان الجيش",
        "lat": 30.0619512,
        "lng": 31.26817
      },
      {
        "name": "باب الشعرية",
        "lat": 30.0537108,
        "lng": 31.255875
      },
      {
        "name": "الموسكى",
        "lat": 30.0503528,
        "lng": 31.253695
      },
      {
        "name": "باب الخلق",
        "lat": 30.0438945,
        "lng": 31.2526973
      },
      {
        "name": "السيدة زينب",
        "lat": 30.0273241,
        "lng": 31.2404117
      },
      {
        "name": "السيدة نفيسة",
        "lat": 30.0128327,
        "lng": 31.4397786
      }
    ]
  },
  {
    "routeNumber": "31 /",
    "type": "اتوبيس",
    "stops": [
      {
        "name": "الزاوية الحمراء",
        "lat": 30.0564287,
        "lng": 31.4010038
      },
      {
        "name": "شارع بورسعيد",
        "lat": 30.0564287,
        "lng": 31.4010038
      },
      {
        "name": "كوبرى غمرة",
        "lat": 30.087432200000002,
        "lng": 31.502066833333334
      },
      {
        "name": "ميدان رمسيس",
        "lat": 30.1184357,
        "lng": 31.603129866666666
      },
      {
        "name": "شارع الجلاء",
        "lat": 30.1494392,
        "lng": 31.7041929
      },
      {
        "name": "عبد المنعم رياض",
        "lat": 30.048721,
        "lng": 31.2341946
      },
      {
        "name": "ميدان الجيزة",
        "lat": 30.048721,
        "lng": 31.2341946
      }
    ]
  },
  {
    "routeNumber": "31/",
    "type": "اتوبيس",
    "stops": [
      {
        "name": "الزاوية الحمراء",
        "lat": 30.068964,
        "lng": 31.2646738
      },
      {
        "name": "غمرة",
        "lat": 30.068964,
        "lng": 31.2646738
      },
      {
        "name": "رمسيس",
        "lat": 30.0618579,
        "lng": 31.2460417
      },
      {
        "name": "الاسعاف",
        "lat": 30.0535483,
        "lng": 31.2388137
      },
      {
        "name": "التحرير",
        "lat": 30.0434377,
        "lng": 31.398951
      },
      {
        "name": "القصر العيني",
        "lat": 30.0421311,
        "lng": 31.2358169
      },
      {
        "name": "الجيزة",
        "lat": 30.0158095,
        "lng": 31.333456
      }
    ]
  },
  {
    "routeNumber": "31",
    "type": "ميني باص",
    "stops": [
      {
        "name": "مساكن عثمان",
        "lat": 30.1304761,
        "lng": 31.3167491
      },
      {
        "name": "عين شمس",
        "lat": 30.1304761,
        "lng": 31.3167491
      },
      {
        "name": "الحلمية",
        "lat": 30.1125623,
        "lng": 31.3342801
      },
      {
        "name": "سرايا القبة",
        "lat": 30.097931600000003,
        "lng": 31.317169149999998
      },
      {
        "name": "كوبرى القبة",
        "lat": 30.0833009,
        "lng": 31.3000582
      },
      {
        "name": "العباسية",
        "lat": 30.066667,
        "lng": 31.283333
      },
      {
        "name": "عبده باشا",
        "lat": 30.0653633,
        "lng": 31.2764414
      },
      {
        "name": "الدراسة",
        "lat": 30.0528737,
        "lng": 31.2748995
      }
    ]
  },
  {
    "routeNumber": "32",
    "type": "اتوبيس",
    "stops": [
      {
        "name": "المظلات",
        "lat": 30.1016229,
        "lng": 31.2455062
      },
      {
        "name": "مؤسسة الطريق الدائرى",
        "lat": 30.084146425,
        "lng": 31.246887225000002
      },
      {
        "name": "طريق أبو الغيط",
        "lat": 30.066669949999998,
        "lng": 31.248268250000002
      },
      {
        "name": "القناطر الخيرية",
        "lat": 30.049193475,
        "lng": 31.249649275
      },
      {
        "name": "العمار",
        "lat": 30.031717,
        "lng": 31.2510303
      }
    ]
  },
  {
    "routeNumber": "32 *",
    "type": "اتوبيس",
    "stops": [
      {
        "name": "الحى الثامن",
        "lat": 30.1529642,
        "lng": 31.6185573
      },
      {
        "name": "مصطفى النحاس",
        "lat": 30.1529642,
        "lng": 31.6185573
      },
      {
        "name": "رابعة العدوية",
        "lat": 30.0689548,
        "lng": 31.3220029
      },
      {
        "name": "صلاح سالم",
        "lat": 30.0751441,
        "lng": 31.3062444
      },
      {
        "name": "رمسيس",
        "lat": 30.0618579,
        "lng": 31.2460417
      },
      {
        "name": "عبد المنعم رياض 2",
        "lat": 29.8567542,
        "lng": 31.3142216
      }
    ]
  },
  {
    "routeNumber": "35 /",
    "type": "اتوبيس",
    "stops": [
      {
        "name": "مساكن الحلمية",
        "lat": 30.1099954,
        "lng": 31.3273201
      },
      {
        "name": "شارع جسر السويس",
        "lat": 30.1361912,
        "lng": 31.3867954
      },
      {
        "name": "ميدان الحجاز",
        "lat": 30.1115116,
        "lng": 31.3458229
      },
      {
        "name": "ميدان روكسى",
        "lat": 30.0929347,
        "lng": 31.3173072
      },
      {
        "name": "رمسيس",
        "lat": 30.0618579,
        "lng": 31.2460417
      },
      {
        "name": "عبد المنعم رياض 2",
        "lat": 29.8567542,
        "lng": 31.3142216
      }
    ]
  },
  {
    "routeNumber": "35",
    "type": "ميني باص",
    "stops": [
      {
        "name": "الزاوية الحمراء",
        "lat": 30.0977898,
        "lng": 31.2454368
      },
      {
        "name": "ابو وافية",
        "lat": 30.0977898,
        "lng": 31.2454368
      },
      {
        "name": "الخلفاوى",
        "lat": 30.0977898,
        "lng": 31.2454368
      },
      {
        "name": "دوران شبرا",
        "lat": 30.09163675,
        "lng": 31.239257950000002
      },
      {
        "name": "كوبرى الساحل",
        "lat": 30.0854837,
        "lng": 31.2330791
      },
      {
        "name": "الكيت كات",
        "lat": 30.0667056,
        "lng": 31.222856450000002
      },
      {
        "name": "العجوزة",
        "lat": 30.0479275,
        "lng": 31.2126338
      },
      {
        "name": "الدقى",
        "lat": 30.0335488,
        "lng": 31.35818855
      },
      {
        "name": "جامعة القاهرة",
        "lat": 30.0191701,
        "lng": 31.5037433
      },
      {
        "name": "زنين",
        "lat": 30.0191701,
        "lng": 31.5037433
      },
      {
        "name": "صفط اللبن",
        "lat": 30.0191701,
        "lng": 31.5037433
      }
    ]
  },
  {
    "routeNumber": "37",
    "type": "ميني باص",
    "stops": [
      {
        "name": "كفر طهرمس",
        "lat": 30.1506795,
        "lng": 31.3825455
      },
      {
        "name": "فيصل",
        "lat": 30.1506795,
        "lng": 31.3825455
      },
      {
        "name": "الجيزة",
        "lat": 30.0158095,
        "lng": 31.333456
      },